,station_code,name,departement,is_open,station_type,lon,lat,alt,is_public,created_at,updated_at
0,01004003,AMBERIEU,1,False,4,5.348333,45.955,249.0,True,2024-12-10 21:36:18.493,2025-10-07 17:14:06.955
1,01010001,ANGLEFORT,1,False,4,5.766667,45.9,280.0,True,2024-12-10 21:36:18.493,2025-10-07 17:14:06.955
2,01014001,ARBENT,1,False,4,5.65,46.266667,535.0,True,2024-12-10 21:36:18.494,2025-10-07 17:14:06.955
3,01014002,ARBENT,1,True,1,5.669,46.278167,534.0,True,2024-12-10 21:27:59.560,2025-10-07 17:06:06.641
4,01025001,BAGE,1,False,4,4.953167,46.325167,200.0,True,2024-12-10 21:36:18.495,2025-10-07 17:14:06.955
5,01027001,BALAN,1,False,4,5.083333,45.833333,197.0,True,2024-12-10 21:36:18.496,2025-10-07 17:14:06.955
6,01027002,BALAN,1,False,4,5.086,45.832833,184.0,True,2024-12-10 21:36:18.497,2025-10-07 17:14:06.956
7,01027003,BALAN_AERO,1,True,2,5.106667,45.833,196.0,True,2024-12-10 21:27:59.560,2025-10-07 17:06:06.641
8,01028001,BANEINS,1,False,4,4.9045,46.122,243.0,True,2024-12-10 21:36:18.498,2025-10-07 17:14:06.967
9,01029001,BEAUPONT,1,False,4,5.263333,46.411667,210.0,True,2024-12-10 21:36:18.498,2025-10-07 17:14:06.962
10,01033001,BELLEGARDE MAN,1,False,4,5.846667,46.103333,500.0,True,2024-12-10 21:36:18.498,2025-10-07 17:14:06.964
11,01033002,BELLEGARDE,1,False,2,5.814167,46.0865,350.0,True,2024-12-10 21:27:59.560,2025-10-07 17:06:06.641
12,01034001,BELLEY MAN,1,False,4,5.686667,45.755,277.0,True,2024-12-10 21:36:18.498,2025-10-07 17:14:06.958
13,01034002,BELLEY,1,False,4,5.688333,45.758333,287.0,True,2024-12-10 21:36:18.498,2025-10-07 17:14:06.959
14,01034004,BELLEY,1,True,1,5.688,45.769333,330.0,True,2024-12-10 21:27:59.560,2025-10-07 17:06:06.641
15,01037001,BENONCES,1,False,4,5.484167,45.862333,944.0,True,2024-12-10 21:36:18.498,2025-10-07 17:14:06.955
16,01043001,BEYNOST,1,False,4,4.990667,45.837333,220.0,True,2024-12-10 21:36:18.498,2025-10-07 17:14:06.956
17,01053001,BOURG EN BRESSE,1,False,4,5.221667,46.206667,240.0,True,2024-12-10 21:27:59.561,2025-10-07 17:06:06.641
18,01053003,BOURG EN BRESSE,1,False,4,5.258333,46.215,250.0,True,2024-12-10 21:36:18.496,2025-10-07 17:14:06.956
19,01053004,BOURG-EN-BRESSE SERV.  HYDRO,1,False,4,5.226667,46.205,246.0,True,2024-12-10 21:36:18.497,2025-10-07 17:14:06.956
20,01059001,BRENAZ,1,False,4,5.721667,45.948333,695.0,True,2024-12-10 21:36:18.497,2025-10-07 17:14:06.958
21,01060001,BRENOD,1,False,4,5.605,46.06,831.0,True,2024-12-10 21:36:18.497,2025-10-07 17:14:06.960
22,01064001,VERIZIEU,1,True,2,5.487167,45.777167,281.0,True,2024-12-10 21:27:59.560,2025-10-07 17:06:06.641
23,01068001,CERDON,1,False,4,5.465167,46.082,315.0,True,2024-12-10 21:36:18.498,2025-10-07 17:14:06.956
24,01071001,CESSY,1,True,1,6.080333,46.310333,507.0,True,2024-12-10 21:27:59.561,2025-10-07 17:06:06.641
25,01072001,CEYZERIAT_SAPC,1,True,2,5.287667,46.204333,260.0,True,2024-12-10 21:27:59.560,2025-10-07 17:06:06.641
26,01074001,CHALAMONT,1,False,4,5.171667,45.996667,239.0,True,2024-12-10 21:36:18.499,2025-10-07 17:14:06.961
27,01082001,CHANAY,1,False,4,5.788333,46.003333,480.0,True,2024-12-10 21:36:18.499,2025-10-07 17:14:06.961
28,01085001,LA CHAPELLE,1,False,4,5.025,46.07,266.0,True,2024-12-10 21:36:18.499,2025-10-07 17:14:06.956
29,01089001,AMBERIEU,1,True,0,5.329333,45.9765,250.0,True,2024-12-10 21:27:59.561,2025-10-07 17:06:06.641
30,01092001,CHATILLON,1,False,4,5.251,45.969,257.0,True,2024-12-10 21:36:18.499,2025-10-07 17:14:06.959
31,01093001,CHATILLON/CHALA,1,False,4,4.955,46.121667,239.0,True,2024-12-10 21:36:18.496,2025-10-07 17:14:06.960
32,01104001,CHEZERY,1,False,4,5.896667,46.24,700.0,True,2024-12-10 21:36:18.499,2025-10-07 17:14:06.962
33,01105001,CIVRIEUX,1,False,4,4.891167,45.911667,291.0,True,2024-12-10 21:36:18.499,2025-10-07 17:14:06.966
34,01115001,CONFRANCON,1,False,4,5.06,46.253333,200.0,True,2024-12-10 21:36:18.499,2025-10-07 17:14:06.956
35,01118001,CORBONOD,1,False,4,5.808333,45.968333,330.0,True,2024-12-10 21:36:18.499,2025-10-07 17:14:06.956
36,01128001,COURTES,1,False,4,5.103333,46.451667,220.0,True,2024-12-10 21:36:18.499,2025-10-07 17:14:06.956
37,01143001,DIVONNE,1,False,4,6.156667,46.376667,488.0,True,2024-12-10 21:36:18.498,2025-10-07 17:14:06.957
38,01143002,DIVONNE ZA,1,True,2,6.139667,46.3415,467.0,True,2024-12-10 21:27:59.560,2025-10-07 17:06:06.641
39,01148001,DORTAN,1,False,4,5.658333,46.321667,308.0,True,2024-12-10 21:36:18.499,2025-10-07 17:14:06.959
40,01157001,FAREINS,1,False,4,4.76,46.02,220.0,True,2024-12-10 21:36:18.499,2025-10-07 17:14:06.960
41,01160001,FERNEY-VOLTAIRE,1,False,4,6.108333,46.255,435.0,True,2024-12-10 21:36:18.499,2025-10-07 17:14:06.956
42,01173001,GEX,1,False,4,6.063167,46.34,612.0,True,2024-12-10 21:36:18.499,2025-10-07 17:14:06.956
43,01173002,GEX,1,False,4,6.018333,46.37,1323.0,True,2024-12-10 21:36:18.496,2025-10-07 17:14:06.958
44,01173011,GEX,1,False,4,6.058333,46.333333,612.0,True,2024-12-10 21:36:18.496,2025-10-07 17:14:06.959
45,01174001,GIRON,1,False,4,5.7725,46.23,1015.0,True,2024-12-10 21:27:59.561,2025-10-07 17:06:06.641
46,01175001,GORREVOD,1,False,4,4.938333,46.418333,195.0,True,2024-12-10 21:36:18.498,2025-10-07 17:14:06.961
47,01176001,GD ABERGEMENT,1,False,4,5.671667,46.035,810.0,True,2024-12-10 21:36:18.498,2025-10-07 17:14:06.963
48,01184001,HAUTECOURT,1,False,4,5.404,46.1545,458.0,True,2024-12-10 21:36:18.498,2025-10-07 17:14:06.970
49,01185001,HAUTEVILLE,1,False,4,5.6,45.966667,820.0,True,2024-12-10 21:36:18.498,2025-10-07 17:14:06.956
50,01185002,HAUTEVILLE,1,False,4,5.605,45.978333,801.0,True,2024-12-10 21:36:18.498,2025-10-07 17:14:06.956
51,01185005,LACOUX,1,False,4,5.596667,45.978333,800.0,True,2024-12-10 21:36:18.498,2025-10-07 17:14:06.957
52,01185006,HAUTEVILLE_EDF_RIC-A2-DOUBLON,1,True,4,5.598167,45.979667,805.0,True,2024-12-10 21:36:18.499,2025-10-07 17:14:06.959
53,01187001,LES PLANS D'HOTONNES,1,False,4,5.699833,46.0365,1048.0,True,2024-12-10 21:36:18.499,2025-10-07 17:14:06.961
54,01190001,INNIMOND,1,False,4,5.572833,45.7825,880.0,True,2024-12-10 21:36:18.497,2025-10-07 17:14:06.961
55,01192001,IZERNORE,1,False,4,5.541667,46.225,430.0,True,2024-12-10 21:36:18.497,2025-10-07 17:14:06.961
56,01196001,JAYAT,1,False,4,5.118333,46.368333,214.0,True,2024-12-10 21:36:18.498,2025-10-07 17:14:06.957
57,01200001,LABALME,1,False,4,5.483333,46.095,596.0,True,2024-12-10 21:36:18.498,2025-10-07 17:14:06.958
58,01200002,LA BALME SUR CERDON_SAPC,1,True,2,5.482,46.09,596.0,True,2024-12-10 21:27:59.560,2025-10-07 17:06:06.641
59,01204001,LALLEYRIAT,1,False,4,5.717167,46.152833,850.0,True,2024-12-10 21:36:18.498,2025-10-07 17:14:06.960
60,01204002,BURL,1,False,3,5.706667,46.166667,530.0,True,2024-12-10 21:27:59.561,2025-10-07 17:06:06.641
61,01209001,LEAZ,1,False,4,5.881667,46.098333,480.0,True,2024-12-10 21:36:18.498,2025-10-07 17:14:06.962
62,01209002,LEAZ BOURG,1,False,4,5.881667,46.098333,497.0,True,2024-12-10 21:36:18.498,2025-10-07 17:14:06.957
63,01210001,LELEX,1,False,4,5.941667,46.301667,930.0,True,2024-12-10 21:36:18.497,2025-10-07 17:14:06.957
64,01210002,LELEX,1,False,4,5.943333,46.303333,875.0,True,2024-12-10 21:36:18.497,2025-10-07 17:14:06.962
65,01216001,LHUIS,1,False,4,5.533333,45.733333,225.0,True,2024-12-10 21:36:18.498,2025-10-07 17:14:06.962
66,01224001,LOYETTES,1,False,4,5.233333,45.8,194.0,True,2024-12-10 21:36:18.498,2025-10-07 17:14:06.962
67,01224002,LOYETTES,1,False,4,5.238333,45.8065,198.0,True,2024-12-10 21:36:18.498,2025-10-07 17:14:06.967
68,01229001,MALAFRETAZ BOURG,1,False,4,5.145,46.325,210.0,True,2024-12-10 21:36:18.498,2025-10-07 17:14:06.957
69,01231001,MANZIAT,1,False,4,4.906667,46.36,210.0,True,2024-12-10 21:36:18.498,2025-10-07 17:14:06.957
70,01235001,MARLIEUX,1,True,2,5.044333,46.0385,280.0,True,2024-12-10 21:27:59.561,2025-10-07 17:06:06.641
71,01235002,MARLIEUX,1,False,3,5.073333,46.046667,273.0,True,2024-12-10 21:27:59.561,2025-10-07 17:06:06.641
72,01243001,MESSIMY,1,False,4,4.757667,46.047167,175.0,True,2024-12-10 21:36:18.497,2025-10-07 17:14:06.957
73,01247002,MIJOUX,1,False,4,5.993333,46.366667,1500.0,True,2024-12-10 21:36:18.497,2025-10-07 17:14:06.958
74,01247003,MIJOUX,1,True,2,6.019333,46.378833,1002.0,True,2024-12-10 21:27:59.561,2025-10-07 17:06:06.641
75,01247004,MIJOUX,1,False,4,6.021667,46.378333,1015.0,True,2024-12-10 21:36:18.497,2025-10-07 17:14:06.959
76,01247005,MIJ LELEX,1,False,4,5.951667,46.321667,890.0,True,2024-12-10 21:36:18.497,2025-10-07 17:14:06.958
77,01250001,MISERIEUX,1,False,4,4.801667,45.981667,270.0,True,2024-12-10 21:36:18.497,2025-10-07 17:14:06.958
78,01255001,MONTAGNIEU,1,False,4,5.47,45.793333,220.0,True,2024-12-10 21:36:18.497,2025-10-07 17:14:06.958
79,01255002,MONTAGNIEU,1,False,4,5.469333,45.794333,336.0,True,2024-12-10 21:27:59.561,2025-10-07 17:06:06.641
80,01262001,MONTLUEL,1,False,4,5.025,45.925,195.0,True,2024-12-10 21:36:18.498,2025-10-07 17:14:06.958
81,01262003,MONTLUEL,1,False,4,5.016667,45.9,280.0,True,2024-12-10 21:36:18.498,2025-10-07 17:14:06.959
82,01262004,MONTLUEL,1,False,4,5.017167,45.907667,275.0,True,2024-12-10 21:36:18.498,2025-10-07 17:14:06.961
83,01263001,MONTMERLE-SUR-SAONE P.C.,1,False,4,4.756667,46.081667,58.0,True,2024-12-10 21:36:18.498,2025-10-07 17:14:06.967
84,01265001,MONTREAL,1,False,4,5.566667,46.186667,495.0,True,2024-12-10 21:36:18.498,2025-10-07 17:14:06.958
85,01267001,MORNAY,1,False,4,5.516667,46.195,450.0,True,2024-12-10 21:36:18.498,2025-10-07 17:14:06.959
86,01269001,NANTUA,1,True,2,5.607333,46.148167,483.0,True,2024-12-10 21:27:59.561,2025-10-07 17:06:06.641
87,01273001,NEUVILLE,1,False,4,5.373833,46.083167,291.0,True,2024-12-10 21:36:18.498,2025-10-07 17:14:06.959
88,01273002,NEUVILLE-SUR-AIN,1,False,4,5.37,46.085,240.0,True,2024-12-10 21:36:18.498,2025-10-07 17:14:06.959
89,01276001,NIEVROZ,1,False,4,5.07,45.816667,182.0,True,2024-12-10 21:36:18.498,2025-10-07 17:14:06.959
90,01283001,OYONNAX,1,False,4,5.661667,46.271667,535.0,True,2024-12-10 21:27:59.561,2025-10-07 17:06:06.641
91,01301001,POLLIAT,1,False,2,5.11,46.236667,201.0,True,2024-12-10 21:27:59.561,2025-10-07 17:06:06.641
92,01304001,PONT-D AIN,1,False,4,5.335,46.05,242.0,True,2024-12-10 21:36:18.498,2025-10-07 17:14:06.961
93,01305001,PONT-DE-VAUX,1,False,4,4.936667,46.433333,181.0,True,2024-12-10 21:36:18.498,2025-10-07 17:14:06.967
94,01350001,SAINT ETIENNE DU BOIS,1,False,4,5.279667,46.296,243.0,True,2024-12-10 21:36:18.498,2025-10-07 17:14:06.960
95,01364001,ST-JEAN/REYSSOU,1,False,4,5.061667,46.396667,208.0,True,2024-12-10 21:36:18.498,2025-10-07 17:14:06.960
96,01367001,ST-JULIEN/REYSS,1,False,4,5.116667,46.383333,189.0,True,2024-12-10 21:36:18.498,2025-10-07 17:14:06.960
97,01367002,SAINT JULIEN SUR REYSSOUZE,1,True,2,5.109833,46.403167,189.0,True,2024-12-10 21:27:59.561,2025-10-07 17:06:06.641
98,01374001,ST MARTIN,1,False,4,5.328333,46.101667,380.0,True,2024-12-10 21:36:18.498,2025-10-07 17:14:06.960
99,01374002,SAINT MARTIN DU MONT,1,False,4,5.318833,46.118333,265.0,True,2024-12-10 21:36:18.498,2025-10-07 17:14:06.960
100,01384001,SAINT RAMBERT EN BUGEY,1,False,4,5.426667,45.931667,285.0,True,2024-12-10 21:36:18.498,2025-10-07 17:14:06.960
101,01384002,SAINT-RAMBERT-EN-BUGEY,1,False,4,5.436667,45.946667,310.0,True,2024-12-10 21:36:18.498,2025-10-07 17:14:06.960
102,01384003,ST RAMBERT CG01,1,True,3,5.461,45.950333,296.0,True,2024-12-10 21:27:59.561,2025-10-07 17:06:06.641
103,01386001,ST-SORLIN,1,False,4,5.373333,45.883333,200.0,True,2024-12-10 21:36:18.498,2025-10-07 17:14:06.961
104,01391001,SALAVRE,1,False,4,5.346667,46.363833,240.0,True,2024-12-10 21:36:18.498,2025-10-07 17:14:06.961
105,01407001,SEYSSEL,1,False,4,5.824,45.953333,285.0,True,2024-12-10 21:36:18.498,2025-10-07 17:14:06.961
106,01408001,SIMANDRE,1,False,4,5.455,46.248333,400.0,True,2024-12-10 21:36:18.498,2025-10-07 17:14:06.961
107,01414001,SUTRIEU,1,True,1,5.624667,45.916167,878.0,True,2024-12-10 21:27:59.561,2025-10-07 17:06:06.641
108,01416001,TENAY,1,False,4,5.506667,45.923333,390.0,True,2024-12-10 21:36:18.498,2025-10-07 17:14:06.961
109,01419001,THOIRY,1,False,3,5.968333,46.241667,605.0,True,2024-12-10 21:27:59.561,2025-10-07 17:06:06.641
110,01420001,THOISSEY,1,False,4,4.801667,46.173333,178.0,True,2024-12-10 21:36:18.498,2025-10-07 17:14:06.961
111,01426001,TREFFORT,1,False,4,5.366667,46.221667,310.0,True,2024-12-10 21:36:18.498,2025-10-07 17:14:06.961
112,01427001,TREVOUX,1,False,4,4.773333,45.891667,188.0,True,2024-12-10 21:36:18.498,2025-10-07 17:14:06.961
113,01430001,VARAMBON BOURG,1,False,4,5.313333,46.041667,58.0,True,2024-12-10 21:36:18.498,2025-10-07 17:14:06.961
114,01441001,VIEU,1,False,4,5.540833,46.088833,615.0,True,2024-12-10 21:36:18.498,2025-10-07 17:14:06.961
115,01447001,VILLEREVERSURE,1,False,4,5.378333,46.183333,299.0,True,2024-12-10 21:36:18.498,2025-10-07 17:14:06.961
116,01452001,VIRIEU-LE-GRAND,1,False,4,5.65,45.833333,284.0,True,2024-12-10 21:36:18.498,2025-10-07 17:14:06.961
117,01452002,VIRIEU-LE-GRAND BOURG,1,False,4,5.651667,45.85,274.0,True,2024-12-10 21:36:18.498,2025-10-07 17:14:06.962
118,01453001,VIRIEU-LE-PETIT,1,False,4,5.718167,45.906833,603.0,True,2024-12-10 21:36:18.498,2025-10-07 17:14:06.962
119,01457001,VONNAS,1,False,4,4.99,46.218333,190.0,True,2024-12-10 21:36:18.498,2025-10-07 17:14:06.962
120,02011001,AMBLENY BOURG,2,False,4,3.181667,49.38,70.0,True,2024-12-10 21:36:20.849,2025-10-07 17:14:09.063
121,02022001,ARCY-STE-RESTIT,2,False,4,3.505,49.263333,104.0,True,2024-12-10 21:36:20.849,2025-10-07 17:14:09.063
122,02031001,AUBENTON,2,False,4,4.2005,49.834,177.0,True,2024-12-10 21:36:20.849,2025-10-07 17:14:09.063
123,02035001,AUDIGNY,2,False,4,3.65,49.866667,150.0,True,2024-12-10 21:36:20.849,2025-10-07 17:14:09.063
124,02037001,AULNOIS-SOUS-LAON,2,False,4,3.6,49.613333,70.0,True,2024-12-10 21:36:20.850,2025-10-07 17:14:09.063
125,02037002,AULNOIS-SS-LAON,2,True,1,3.610333,49.595667,78.0,True,2024-12-10 21:28:02.353,2025-10-07 17:06:09.189
126,02058001,BEAURIEUX,2,True,2,3.732667,49.390333,56.0,True,2024-12-10 21:28:02.353,2025-10-07 17:06:09.189
127,02065001,BELLICOURT RIQUEVAL,2,False,4,3.235,49.96,132.0,True,2024-12-10 21:36:20.854,2025-10-07 17:14:09.063
128,02068001,BERLANCOURT AGGLOMERATION,2,False,4,3.756667,49.778333,94.0,True,2024-12-10 21:36:20.854,2025-10-07 17:14:09.064
129,02073001,BERRY-AU-BAC AGGLOMERATION,2,False,4,3.903333,49.403333,58.0,True,2024-12-10 21:36:20.854,2025-10-07 17:14:09.063
130,02073002,BERRY-AU-BAC CANAL,2,False,4,3.903333,49.403333,57.0,True,2024-12-10 21:36:20.854,2025-10-07 17:14:09.066
131,02077001,BERZY-LE-SEC,2,True,2,3.284333,49.305,147.0,True,2024-12-10 21:36:20.854,2025-10-07 17:14:09.067
132,02083001,BEUVARDES FERME D'ARTOIS,2,False,4,3.468333,49.128333,215.0,True,2024-12-10 21:36:20.854,2025-10-07 17:14:09.064
133,02085001,BEZU-SAINT-GERMAIN SANEF,2,False,4,3.393333,49.08,195.0,True,2024-12-10 21:36:20.854,2025-10-07 17:14:09.065
134,02086001,BICHANCOURT,2,False,4,3.210833,49.579333,59.0,True,2024-12-10 21:36:20.854,2025-10-07 17:14:09.063
135,02094001,BLESMES,2,True,1,3.462667,49.009667,222.0,True,2024-12-10 21:28:02.353,2025-10-07 17:06:09.189
136,02095001,BOHAIN-EN-VERMA,2,False,4,3.45,49.983333,135.0,True,2024-12-10 21:36:20.854,2025-10-07 17:14:09.065
137,02095002,BOHAIN-EN-VERMANDOIS,2,False,4,3.453333,49.986667,120.0,True,2024-12-10 21:36:20.854,2025-10-07 17:14:09.066
138,02100001,BONY,2,False,4,3.2245,50.003167,94.0,True,2024-12-10 21:36:20.850,2025-10-07 17:14:09.063
139,02109001,LA BOUTEILLE,2,False,4,3.968333,49.891667,133.0,True,2024-12-10 21:36:20.852,2025-10-07 17:14:09.064
140,02110001,BRAINE - MAN,2,False,4,3.5275,49.344167,53.0,True,2024-12-10 21:36:20.854,2025-10-07 17:14:09.065
141,02110002,BRAINE,2,True,1,3.527,49.351333,61.0,True,2024-12-10 21:28:02.353,2025-10-07 17:06:09.189
142,02114001,BRASLES,2,False,4,3.421167,49.048667,64.0,True,2024-12-10 21:36:20.854,2025-10-07 17:14:09.069
143,02133001,BUCY-LES-PIERREPONT,2,False,4,3.901667,49.646667,106.0,True,2024-12-10 21:36:20.854,2025-10-07 17:14:09.070
144,02135001,BUIRONFOSSE,2,False,4,3.838333,49.961667,208.0,True,2024-12-10 21:36:20.854,2025-10-07 17:14:09.070
145,02153001,CESSIERES,2,False,4,3.498333,49.553333,107.0,True,2024-12-10 21:36:20.854,2025-10-07 17:14:09.071
146,02157001,CHAMBRY AGGLOMERATION,2,False,4,3.655,49.591667,80.0,True,2024-12-10 21:36:20.854,2025-10-07 17:14:09.071
147,02163001,CHARLY,2,False,4,3.3,48.983333,64.0,True,2024-12-10 21:36:20.854,2025-10-07 17:14:09.072
148,02168001,CHATEAU-THIERRY,2,False,4,3.401667,49.045,64.0,True,2024-12-10 21:36:20.855,2025-10-07 17:14:09.063
149,02173001,CHAUNY RUE DU PORT,2,False,4,3.218333,49.616667,47.0,True,2024-12-10 21:36:20.855,2025-10-07 17:14:09.064
150,02173002,CHAUNY,2,True,1,3.197833,49.633833,83.0,True,2024-12-10 21:28:02.354,2025-10-07 17:06:09.190
151,02182001,CHEVENNES,2,False,4,3.733333,49.816667,125.0,True,2024-12-10 21:36:20.851,2025-10-07 17:14:09.065
152,02184001,CHEVRESIS-MONCEAU,2,False,4,3.571667,49.755,65.0,True,2024-12-10 21:36:20.852,2025-10-07 17:14:09.065
153,02197001,CLAIRFONTAINE,2,False,2,3.966667,49.966667,225.0,True,2024-12-10 21:28:02.353,2025-10-07 17:06:09.190
154,02199001,CLASTRES,2,False,4,3.2285,49.742833,75.0,True,2024-12-10 21:36:20.852,2025-10-07 17:14:09.067
155,02217001,COUCY-LE-CHATEAU-TRAVERSIERE,2,False,4,3.321667,49.518333,106.0,True,2024-12-10 21:36:20.854,2025-10-07 17:14:09.068
156,02217002,COUCY-LE-CHATEAU-AUFFRIQUE,2,False,4,3.321667,49.518333,52.0,True,2024-12-10 21:36:20.854,2025-10-07 17:14:09.068
157,02217003,COUCY-LE-CHATEAU-AUFFRIQUE-AGG,2,False,4,3.321667,49.518333,127.0,True,2024-12-10 21:36:20.855,2025-10-07 17:14:09.068
158,02219001,COUCY-LA-VILLE,2,False,4,3.361167,49.550667,171.0,True,2024-12-10 21:36:20.855,2025-10-07 17:14:09.063
159,02220001,COULONGES-COHAN,2,False,4,3.605833,49.214167,168.0,True,2024-12-10 21:36:20.855,2025-10-07 17:14:09.063
160,02237001,CRECY-SUR-SERRE,2,False,4,3.626667,49.696667,70.0,True,2024-12-10 21:36:20.855,2025-10-07 17:14:09.065
161,02239001,CREZANCY,2,False,4,3.5,49.05,125.0,True,2024-12-10 21:36:20.854,2025-10-07 17:14:09.065
162,02239002,CREZANCY AGGLOMERATION,2,False,4,3.51,49.046667,72.0,True,2024-12-10 21:36:20.855,2025-10-07 17:14:09.066
163,02258001,DAMMARD,2,False,4,3.197333,49.146333,146.0,True,2024-12-10 21:36:20.855,2025-10-07 17:14:09.066
164,02264001,DIZY-LE-GROS AGGLOMERATION,2,False,4,4.021667,49.63,140.0,True,2024-12-10 21:36:20.855,2025-10-07 17:14:09.066
165,02277001,EPAGNY RUE PRINCIPALE,2,False,4,3.241667,49.463333,79.0,True,2024-12-10 21:36:20.855,2025-10-07 17:14:09.067
166,02278001,EPARCY,2,False,4,4.0595,49.875,161.0,True,2024-12-10 21:36:20.855,2025-10-07 17:14:09.068
167,02295001,ETREAUPONT BOURG,2,False,4,3.913333,49.901667,127.0,True,2024-12-10 21:36:20.855,2025-10-07 17:14:09.068
168,02298001,ETREUX,2,False,4,3.646833,49.987833,120.0,True,2024-12-10 21:36:20.852,2025-10-07 17:14:09.063
169,02298003,ETREUX ECLUSE,2,False,4,3.653333,49.993333,131.0,True,2024-12-10 21:36:20.854,2025-10-07 17:14:09.066
170,02301001,FAUCOUCOURT FERME D'HUEZ,2,False,4,3.465,49.531667,95.0,True,2024-12-10 21:36:20.854,2025-10-07 17:14:09.066
171,02301002,FAUCOUCOURT,2,False,4,3.462167,49.527333,100.0,True,2024-12-10 21:36:20.855,2025-10-07 17:14:09.067
172,02304001,LA FERE AGGLOMERATION,2,False,4,3.365,49.661667,43.0,True,2024-12-10 21:36:20.855,2025-10-07 17:14:09.067
173,02307001,LA FERTE-MILON,2,False,4,3.13,49.173333,65.0,True,2024-12-10 21:36:20.855,2025-10-07 17:14:09.068
174,02308001,FESMY-LE-SART,2,False,4,3.726667,50.06,190.0,True,2024-12-10 21:36:20.854,2025-10-07 17:14:09.068
175,02320001,ST QUENTIN,2,True,0,3.206,49.818333,98.0,True,2024-12-10 21:28:02.353,2025-10-07 17:06:09.190
176,02321001,FONTAINE-VV MAN,2,False,4,3.8795,49.836333,184.0,True,2024-12-10 21:36:20.855,2025-10-07 17:14:09.063
177,02321002,FONTAINE-LES-VV,2,True,1,3.877833,49.837333,186.0,True,2024-12-10 21:28:02.354,2025-10-07 17:06:09.190
178,02329001,FOURDRAIN AGGLOMERATION,2,False,4,3.471667,49.61,90.0,True,2024-12-10 21:36:20.855,2025-10-07 17:14:09.064
179,02345001,GIBERCOURT BOURG,2,False,4,3.288333,49.733333,103.0,True,2024-12-10 21:36:20.855,2025-10-07 17:14:09.064
180,02346001,GIZY,2,True,2,3.781,49.599833,75.0,True,2024-12-10 21:28:02.354,2025-10-07 17:06:09.190
181,02360001,GUIGNICOURT AGGLOMERATION,2,False,4,3.966667,49.435,67.0,True,2024-12-10 21:36:20.853,2025-10-07 17:14:09.066
182,02361001,GUISE FLAVIGNY-LE-PETIT,2,False,4,3.626667,49.901667,181.0,True,2024-12-10 21:36:20.854,2025-10-07 17:14:09.067
183,02361002,GUISE,2,False,4,3.620833,49.902833,95.0,True,2024-12-10 21:36:20.854,2025-10-07 17:14:09.067
184,02381001,HIRSON,2,True,2,4.077167,49.922,165.0,True,2024-12-10 21:28:02.354,2025-10-07 17:06:09.190
185,02381002,HIRSON PONTS-ET-CHAUSSEES,2,False,4,4.081667,49.921667,190.0,True,2024-12-10 21:36:20.854,2025-10-07 17:14:09.069
186,02387001,ITANCOURT FERME GERMAIN,2,False,4,3.346667,49.808333,100.0,True,2024-12-10 21:36:20.854,2025-10-07 17:14:09.070
187,02397001,JUSSY CGTVN,2,False,4,3.231667,49.718333,68.0,True,2024-12-10 21:36:20.854,2025-10-07 17:14:09.064
188,02408001,LAON,2,False,4,3.631667,49.564333,180.0,True,2024-12-10 21:36:20.854,2025-10-07 17:14:09.064
189,02408002,LAON,2,False,4,3.596667,49.57,82.0,True,2024-12-10 21:36:20.854,2025-10-07 17:14:09.064
190,02408003,LAON ECOLE NORMALE,2,False,4,3.612167,49.559167,175.0,True,2024-12-10 21:36:20.854,2025-10-07 17:14:09.066
191,02408004,LAON BOURG,2,False,4,3.623833,49.5645,180.0,True,2024-12-10 21:36:20.853,2025-10-07 17:14:09.067
192,02408022,LAON STATION AGRONOMIQUE,2,False,4,3.605,49.570833,91.0,True,2024-12-10 21:36:20.853,2025-10-07 17:14:09.069
193,02409001,LAPPION,2,False,4,3.965,49.606667,90.0,True,2024-12-10 21:36:20.853,2025-10-07 17:14:09.069
194,02433001,LISLET,2,False,4,4.0235,49.685833,114.0,True,2024-12-10 21:36:20.854,2025-10-07 17:14:09.069
195,02457001,MARCHAIS ECOLE,2,False,4,3.816667,49.583333,130.0,True,2024-12-10 21:36:20.853,2025-10-07 17:14:09.064
196,02457002,MARCHAIS CHATEAU,2,False,4,3.816667,49.583333,86.0,True,2024-12-10 21:36:20.853,2025-10-07 17:14:09.064
197,02465001,MARIGNY-EN-ORXOIS,2,False,4,3.23,49.041667,214.0,True,2024-12-10 21:36:20.854,2025-10-07 17:14:09.066
198,02468001,MARLE SUCRERIE,2,False,4,3.771667,49.74,79.0,True,2024-12-10 21:36:20.854,2025-10-07 17:14:09.066
199,02468002,MARLE AGGLOMERATION,2,False,4,3.771667,49.74,120.0,True,2024-12-10 21:36:20.854,2025-10-07 17:14:09.066
200,02471001,MARTIGNY-COURPI,2,True,2,3.693167,49.485667,95.0,True,2024-12-10 21:28:02.354,2025-10-07 17:06:09.190
201,02471003,MARTIGNY-COURPIERRE ECOLE,2,False,4,3.678333,49.488333,180.0,True,2024-12-10 21:36:20.854,2025-10-07 17:14:09.067
202,02475001,MENNEVILLE,2,False,4,4.0055,49.419833,59.0,True,2024-12-10 21:36:20.854,2025-10-07 17:14:09.065
203,02502001,MONTCORNET,2,False,4,4.0215,49.69,130.0,True,2024-12-10 21:36:20.854,2025-10-07 17:14:09.064
204,02503001,MONT-D'ORIGNY RUE A. WARIN,2,False,4,3.498333,49.843333,79.0,True,2024-12-10 21:36:20.854,2025-10-07 17:14:09.064
205,02504001,MONTESCOURT-LIZEROLLES BOURG,2,False,4,3.258333,49.736667,80.0,True,2024-12-10 21:36:20.854,2025-10-07 17:14:09.064
206,02505001,MONTFAUCON,2,False,4,3.441,48.973333,217.0,True,2024-12-10 21:36:20.854,2025-10-07 17:14:09.064
207,02537001,NANTEUIL-LA-FOSSE,2,False,4,3.451667,49.435,174.0,True,2024-12-10 21:36:20.854,2025-10-07 17:14:09.065
208,02545001,LA NEUVILLE-BOSMONT ECOLE,2,False,4,3.838333,49.713333,132.0,True,2024-12-10 21:36:20.854,2025-10-07 17:14:09.065
209,02558001,NOUVION-EN-T,2,False,4,3.7765,50.007833,182.0,True,2024-12-10 21:36:20.854,2025-10-07 17:14:09.065
210,02558002,LE NOUVION-EN-THIERACHE,2,False,4,3.786667,50.016667,185.0,True,2024-12-10 21:36:20.854,2025-10-07 17:14:09.068
211,02567001,OHIS RUE DE FOUGERE,2,False,4,4.006667,49.928333,150.0,True,2024-12-10 21:36:20.854,2025-10-07 17:14:09.068
212,02575001,ORIGNY-STE-BENO,2,False,4,3.481,49.839167,75.0,True,2024-12-10 21:36:20.854,2025-10-07 17:14:09.068
213,02577001,OSTEL,2,False,4,3.550833,49.434167,162.0,True,2024-12-10 21:36:20.854,2025-10-07 17:14:09.071
214,02580001,OULCHY-LE-CHATE,2,False,4,3.417,49.208667,122.0,True,2024-12-10 21:36:20.854,2025-10-07 17:14:09.065
215,02585001,PARCY-ET-TIGNY,2,True,2,3.331,49.280167,148.0,True,2024-12-10 21:28:02.354,2025-10-07 17:06:09.190
216,02590001,PARGNY-LA-DHUYS LES SOURCES,2,False,4,3.553333,48.953333,142.0,True,2024-12-10 21:36:20.854,2025-10-07 17:14:09.065
217,02590002,PARGNY-LA-DHUYS AGGLOMERATION,2,False,4,3.553333,48.953333,132.0,True,2024-12-10 21:36:20.854,2025-10-07 17:14:09.065
218,02594001,PASSY EN VALOIS,2,False,2,3.199667,49.165167,141.0,True,2024-12-10 21:28:02.354,2025-10-07 17:06:09.190
219,02602001,PINON,2,False,4,3.446667,49.488333,58.0,True,2024-12-10 21:36:20.854,2025-10-07 17:14:09.065
220,02608001,PLOMION,2,False,4,4.036667,49.83,190.0,True,2024-12-10 21:36:20.854,2025-10-07 17:14:09.066
221,02613001,PONTAVERT BOURG,2,False,4,3.821667,49.406667,53.0,True,2024-12-10 21:36:20.854,2025-10-07 17:14:09.067
222,02614001,PONTRU,2,False,4,3.203,49.9075,80.0,True,2024-12-10 21:36:20.854,2025-10-07 17:14:09.068
223,02617001,POUILLY-SUR-SERRE,2,False,4,3.597333,49.683833,68.0,True,2024-12-10 21:36:20.854,2025-10-07 17:14:09.069
224,02626001,PROUVAIS,2,False,4,3.970667,49.463333,105.0,True,2024-12-10 21:36:20.854,2025-10-07 17:14:09.065
225,02643001,RESSONS-LE-LONG,2,False,4,3.1865,49.395833,40.0,True,2024-12-10 21:36:20.854,2025-10-07 17:14:09.066
226,02643002,RESSONS LE LONG,2,False,4,3.147667,49.3835,133.0,True,2024-12-10 21:36:20.854,2025-10-07 17:14:09.066
227,02648001,RIBEMONT SURFONTAINE,2,False,4,3.468333,49.753333,118.0,True,2024-12-10 21:36:20.854,2025-10-07 17:14:09.066
228,02651001,ROGECOURT MONTROUGE,2,False,4,3.426667,49.651667,95.0,True,2024-12-10 21:36:20.854,2025-10-07 17:14:09.066
229,02652001,ROGNY,2,False,4,3.815667,49.766667,115.0,True,2024-12-10 21:36:20.854,2025-10-07 17:14:09.066
230,02668001,SAINS-RICHAUMONT BOURG,2,False,4,3.71,49.825,150.0,True,2024-12-10 21:36:20.854,2025-10-07 17:14:09.066
231,02668002,SAINS-RICHAUMONT,2,False,4,3.703333,49.823333,155.0,True,2024-12-10 21:36:20.854,2025-10-07 17:14:09.066
232,02674001,ST-CLEMENT,2,False,4,4.071667,49.773167,201.0,True,2024-12-10 21:36:20.854,2025-10-07 17:14:09.066
233,02680001,SAINT-GOBAIN SANATORIUM,2,False,4,3.376667,49.595,166.0,True,2024-12-10 21:36:20.854,2025-10-07 17:14:09.066
234,02680002,SAINT-GOBAIN LA GRANGE,2,False,4,3.378333,49.601667,110.0,True,2024-12-10 21:36:20.854,2025-10-07 17:14:09.066
235,02684001,SAINT-MICHEL GENDARMERIE,2,False,4,4.13,49.92,205.0,True,2024-12-10 21:36:20.854,2025-10-07 17:14:09.066
236,02691001,ST-QUENTIN MAN,2,False,4,3.303167,49.834167,78.0,True,2024-12-10 21:36:20.854,2025-10-07 17:14:09.066
237,02691003,SAINT-QUENTIN BOURG,2,False,4,3.286667,49.848333,75.0,True,2024-12-10 21:36:20.854,2025-10-07 17:14:09.066
238,02691012,SAINT-QUENTIN AGGLOMERATION,2,False,4,3.285,49.848333,101.0,True,2024-12-10 21:36:20.854,2025-10-07 17:14:09.066
239,02705001,NIZY-LE-COMTE,2,True,1,4.0365,49.566,90.0,True,2024-12-10 21:28:02.354,2025-10-07 17:06:09.190
240,02710001,SERAUCOURT-LE-GRAND BOURG,2,False,4,3.211667,49.78,100.0,True,2024-12-10 21:36:20.854,2025-10-07 17:14:09.068
241,02720001,SISSONNE AGGLOMERATION,2,False,4,3.893333,49.571667,108.0,True,2024-12-10 21:36:20.854,2025-10-07 17:14:09.066
242,02722002,SOISSONS,2,False,4,3.310667,49.390667,40.0,True,2024-12-10 21:36:20.854,2025-10-07 17:14:09.067
243,02722004,SOISSONS,2,False,4,3.325,49.38,43.0,True,2024-12-10 21:36:20.854,2025-10-07 17:14:09.067
244,02722006,SOISSONS GENDARMERIE,2,False,4,3.325,49.38,55.0,True,2024-12-10 21:36:20.854,2025-10-07 17:14:09.067
245,02722007,SOISSONS BOURG,2,False,4,3.325,49.38,43.0,True,2024-12-10 21:36:20.854,2025-10-07 17:14:09.067
246,02722008,SOISSONS BOURG,2,False,4,3.325,49.38,45.0,True,2024-12-10 21:36:20.854,2025-10-07 17:14:09.067
247,02732001,SURFONTAINE,2,False,4,3.466667,49.75,119.0,True,2024-12-10 21:36:20.854,2025-10-07 17:14:09.068
248,02734001,TAILLEFONTAINE,2,False,4,3.044,49.312667,140.0,True,2024-12-10 21:36:20.854,2025-10-07 17:14:09.067
249,02738001,TERGNIER,2,True,2,3.320667,49.663833,59.0,True,2024-12-10 21:28:02.354,2025-10-07 17:06:09.190
250,02738002,TERGNIER QUESSY,2,False,4,3.291667,49.67,58.0,True,2024-12-10 21:36:20.854,2025-10-07 17:14:09.067
251,02758001,VAILLY-SUR-AISN,2,False,4,3.519333,49.412167,65.0,True,2024-12-10 21:36:20.854,2025-10-07 17:14:09.067
252,02780001,VENIZEL ECOLE,2,False,4,3.391667,49.366667,52.0,True,2024-12-10 21:36:20.854,2025-10-07 17:14:09.068
253,02787001,VERNEUIL-SUR-SERRE BOURG,2,False,4,3.673333,49.65,72.0,True,2024-12-10 21:36:20.854,2025-10-07 17:14:09.067
254,02789001,VERVINS FPA - ECOLE AGRICOLE,2,False,4,3.908333,49.835,180.0,True,2024-12-10 21:36:20.854,2025-10-07 17:14:09.068
255,02789003,VERVINS AGGLOMERATION,2,False,4,3.908333,49.835,175.0,True,2024-12-10 21:36:20.854,2025-10-07 17:14:09.068
256,02798001,VIELS-MAISONS LE CORNILLIER,2,False,4,3.398333,48.896667,205.0,True,2024-12-10 21:36:20.854,2025-10-07 17:14:09.068
257,02802001,VILLE-AUX-BOIS,2,False,4,3.995167,49.659667,143.0,True,2024-12-10 21:36:20.854,2025-10-07 17:14:09.068
258,02810001,VILLERS-COTTERE,2,False,4,3.083333,49.25,125.0,True,2024-12-10 21:36:20.854,2025-10-07 17:14:09.068
259,02814001,VILLERS-LES-G,2,False,4,3.673833,49.9215,154.0,True,2024-12-10 21:36:20.854,2025-10-07 17:14:09.068
260,02815001,VILLERS-SAINT-CHRISTOPHE,2,False,4,3.093333,49.78,79.0,True,2024-12-10 21:36:20.854,2025-10-07 17:14:09.068
261,02822001,VIVIERES,2,False,4,3.103333,49.303333,140.0,True,2024-12-10 21:36:20.854,2025-10-07 17:14:09.068
262,03003001,AINAY-LE-CHATE,3,False,4,2.696,46.705667,220.0,True,2024-12-10 21:36:23.261,2025-10-07 17:14:11.144
263,03005001,ARCHIGNAT,3,False,3,2.433667,46.359333,370.0,True,2024-12-10 21:28:04.977,2025-10-07 17:06:12.217
264,03005002,ARCHIGNAT-SPC,3,True,5,2.385833,46.3325,557.0,True,2024-12-10 21:28:04.977,2025-10-07 17:06:12.217
265,03006001,ARFEUILLES,3,False,4,3.728333,46.153333,425.0,True,2024-12-10 21:36:23.261,2025-10-07 17:14:11.145
266,03006002,ARFEUILLES LES BIEFS,3,False,4,3.728333,46.155,823.0,True,2024-12-10 21:36:23.261,2025-10-07 17:14:11.147
267,03006003,ARFEUILLES,3,False,4,3.7355,46.163667,450.0,True,2024-12-10 21:36:23.261,2025-10-07 17:14:11.149
268,03009001,AUBIGNY,3,False,4,3.1865,46.6735,200.0,True,2024-12-10 21:36:23.264,2025-10-07 17:14:11.150
269,03013001,AVERMES RUE DES GATEAUX,3,False,4,3.306667,46.588333,215.0,True,2024-12-10 21:28:04.977,2025-10-07 17:06:12.217
270,03015001,BAGNEUX DOMAINE DU SOURD,3,False,4,3.205,46.658333,212.0,True,2024-12-10 21:36:23.262,2025-10-07 17:14:11.151
271,03015002,BAGNEUX LE SAULT,3,False,4,3.205,46.658333,210.0,True,2024-12-10 21:36:23.263,2025-10-07 17:14:11.153
272,03022001,BELLENAVES BOURG,3,False,4,3.08,46.2,397.0,True,2024-12-10 21:36:23.263,2025-10-07 17:14:11.153
273,03022002,BELLENAVES-SPC,3,True,5,3.085333,46.200167,338.0,True,2024-12-10 21:28:04.977,2025-10-07 17:06:12.217
274,03023001,BELLERIVE-SUR-ALLIER BOURG,3,False,4,3.406667,46.116667,260.0,True,2024-12-10 21:36:23.263,2025-10-07 17:14:11.152
275,03025001,BESSAY-SUR-ALLIER,3,False,4,3.363333,46.443333,226.0,True,2024-12-10 21:36:23.263,2025-10-07 17:14:11.152
276,03029001,BILLY,3,False,4,3.431667,46.233333,286.0,True,2024-12-10 21:28:04.979,2025-10-07 17:06:12.217
277,03036001,BOURBON-L ARCH,3,False,4,3.057167,46.586,235.0,True,2024-12-10 21:36:23.263,2025-10-07 17:14:11.146
278,03036002,BOURBON_SAPC,3,True,2,3.0495,46.58,270.0,True,2024-12-10 21:28:04.977,2025-10-07 17:06:12.217
279,03036003,BOURBON-L'ARCH,3,False,4,3.091833,46.568167,278.0,True,2024-12-10 21:36:23.264,2025-10-07 17:14:11.149
280,03036004,BOURBON-L'ARCHAMBAULT,3,False,4,3.056667,46.583333,277.0,True,2024-12-10 21:36:23.264,2025-10-07 17:14:11.151
281,03037001,BRAIZE LES LANDES BLANCHES,3,False,4,2.653333,46.665,232.0,True,2024-12-10 21:36:23.264,2025-10-07 17:14:11.153
282,03038001,BRANSAT,3,False,4,3.223333,46.328333,350.0,True,2024-12-10 21:36:23.264,2025-10-07 17:14:11.153
283,03043001,BROUT-VERNET,3,False,4,3.267667,46.187167,315.0,True,2024-12-10 21:36:23.264,2025-10-07 17:14:11.153
284,03046001,BUXIERES,3,False,4,3.004833,46.4535,375.0,True,2024-12-10 21:28:04.979,2025-10-07 17:06:12.217
285,03048002,CERILLY LE POINT DU JOUR,3,False,4,2.818333,46.616667,250.0,True,2024-12-10 21:36:23.262,2025-10-07 17:14:11.153
286,03048004,CERILLY AGGLOMERATION,3,False,4,2.818333,46.616667,294.0,True,2024-12-10 21:36:23.262,2025-10-07 17:14:11.153
287,03048005,CERILLY,3,False,4,2.776667,46.598333,315.0,True,2024-12-10 21:36:23.262,2025-10-07 17:14:11.153
288,03048006,CERILLY,3,False,4,2.8085,46.6185,306.0,True,2024-12-10 21:36:23.263,2025-10-07 17:14:11.145
289,03053001,CHANTELLE LA FONT VINEE,3,False,4,3.15,46.236667,330.0,True,2024-12-10 21:36:23.263,2025-10-07 17:14:11.145
290,03053003,CHANTELLE,3,False,4,3.155333,46.2315,310.0,True,2024-12-10 21:36:23.263,2025-10-07 17:14:11.146
291,03055001,LA CHAPELAUDE AGGLOMERATION,3,False,4,2.503333,46.42,241.0,True,2024-12-10 21:36:23.263,2025-10-07 17:14:11.147
292,03059001,CHAREIL-CINTRAT_SAPC,3,True,2,3.225667,46.275833,286.0,True,2024-12-10 21:28:04.977,2025-10-07 17:06:12.219
293,03060001,VICHY-CHARMEIL,3,True,0,3.398667,46.166667,249.0,True,2024-12-10 21:28:04.979,2025-10-07 17:06:12.218
294,03061001,CHARMES_SAPC,3,True,2,3.233667,46.0635,330.0,True,2024-12-10 21:28:04.979,2025-10-07 17:06:12.217
295,03064001,CHATEAU-SUR-ALLIER ECOLE,3,False,4,3.03,46.765,190.0,True,2024-12-10 21:36:23.263,2025-10-07 17:14:11.152
296,03066001,CHATEL-MONTAGNE,3,False,4,3.683333,46.116667,345.0,True,2024-12-10 21:36:23.264,2025-10-07 17:14:11.153
297,03066002,CHATEL-MTG,3,False,4,3.666667,46.115,366.0,True,2024-12-10 21:36:23.264,2025-10-07 17:14:11.153
298,03066003,CHATEL-MONTAGNE,3,False,4,3.683,46.1155,515.0,True,2024-12-10 21:28:04.979,2025-10-07 17:06:12.217
299,03073001,CHEMILLY,3,False,4,3.315833,46.488333,235.0,True,2024-12-10 21:36:23.264,2025-10-07 17:14:11.153
300,03074001,CHEVAGNES,3,True,2,3.549167,46.630667,228.0,True,2024-12-10 21:28:04.977,2025-10-07 17:06:12.217
301,03082001,COMMENTRY ECOLE,3,False,4,2.741667,46.288333,385.0,True,2024-12-10 21:36:23.262,2025-10-07 17:14:11.146
302,03082002,COMMENTRY AGGLOMERATION,3,False,4,2.741667,46.288333,391.0,True,2024-12-10 21:36:23.263,2025-10-07 17:14:11.147
303,03082003,COMMENTRY,3,False,3,2.746667,46.295,370.0,True,2024-12-10 21:28:04.978,2025-10-07 17:06:12.218
304,03083001,CONTIGNY LA RACHERIE,3,False,4,3.305,46.351667,239.0,True,2024-12-10 21:36:23.263,2025-10-07 17:14:11.152
305,03083002,CONTIGNY,3,False,4,3.292333,46.3535,305.0,True,2024-12-10 21:36:23.263,2025-10-07 17:14:11.153
306,03084001,COSNE,3,False,4,2.828333,46.473333,235.0,True,2024-12-10 21:36:23.263,2025-10-07 17:14:11.154
307,03084003,COSNE-D'ALLIER,3,False,4,2.83,46.473333,230.0,True,2024-12-10 21:36:23.263,2025-10-07 17:14:11.154
308,03084004,COSNE D'ALLIER,3,False,4,2.840333,46.462333,245.0,True,2024-12-10 21:36:23.263,2025-10-07 17:14:11.154
309,03087001,COULEUVRE,3,False,4,2.853333,46.679833,308.0,True,2024-12-10 21:36:23.263,2025-10-07 17:14:11.154
310,03089001,COUTANSOUZE,3,False,4,3.011667,46.216667,595.0,True,2024-12-10 21:36:23.263,2025-10-07 17:14:11.145
311,03092002,CRESSANGES-SPC,3,True,5,3.145,46.446833,473.0,True,2024-12-10 21:28:04.978,2025-10-07 17:06:12.219
312,03098001,DESERTINES LA VERNE - JARDINS,3,False,4,2.618333,46.355,275.0,True,2024-12-10 21:36:23.263,2025-10-07 17:14:11.148
313,03099001,DEUX-CHAISES BOUILLE,3,False,4,3.012667,46.364667,470.0,True,2024-12-10 21:36:23.262,2025-10-07 17:14:11.149
314,03100001,DIOU,3,True,2,3.706667,46.541667,220.0,True,2024-12-10 21:28:04.978,2025-10-07 17:06:12.217
315,03102001,DOMPIERRE-SUR-BESBRE,3,False,4,3.678333,46.521667,255.0,True,2024-12-10 21:36:23.264,2025-10-07 17:14:11.152
316,03103001,LE DONJON,3,False,4,3.782667,46.3555,325.0,True,2024-12-10 21:36:23.264,2025-10-07 17:14:11.152
317,03106002,DURDAT-LAREQUILLE,3,True,2,2.695667,46.251667,500.0,True,2024-12-10 21:28:04.977,2025-10-07 17:06:12.218
318,03107001,EBREUIL,3,False,4,3.089167,46.117667,310.0,True,2024-12-10 21:36:23.264,2025-10-07 17:14:11.154
319,03108001,ECHASSIERES_SAPC,3,True,2,2.957667,46.191167,650.0,True,2024-12-10 21:28:04.978,2025-10-07 17:06:12.218
320,03113001,FERRIERES-SUR-SICHON BOURG,3,False,4,3.648333,46.026667,535.0,True,2024-12-10 21:36:23.264,2025-10-07 17:14:11.145
321,03114001,FERTE-HAUTERIVE,3,True,2,3.331,46.376833,226.0,True,2024-12-10 21:28:04.978,2025-10-07 17:06:12.217
322,03115001,FLEURIEL TAXAT,3,False,4,3.178667,46.264,310.0,True,2024-12-10 21:36:23.264,2025-10-07 17:14:11.147
323,03117001,FRANCHESSE MARGEAT,3,False,4,3.033333,46.636667,319.0,True,2024-12-10 21:36:23.262,2025-10-07 17:14:11.148
324,03117002,FRANCHESSE CHATEAU DU VALLAT,3,False,4,3.033333,46.636667,250.0,True,2024-12-10 21:36:23.263,2025-10-07 17:14:11.149
325,03118001,GANNAT,3,False,4,3.198667,46.110333,347.0,True,2024-12-10 21:36:23.262,2025-10-07 17:14:11.150
326,03118002,GANNAT MONTEIGNET - FONTORTE,3,False,4,3.196667,46.1,316.0,True,2024-12-10 21:36:23.263,2025-10-07 17:14:11.151
327,03121001,GENNETINES PLAMONT,3,False,4,3.411667,46.636667,250.0,True,2024-12-10 21:36:23.263,2025-10-07 17:14:11.152
328,03125001,LA GUILLERMIE,3,True,2,3.639833,45.984667,722.0,True,2024-12-10 21:28:04.978,2025-10-07 17:06:12.219
329,03127001,HERISSON,3,False,4,2.757333,46.501167,248.0,True,2024-12-10 21:36:23.263,2025-10-07 17:14:11.145
330,03127002,HERISSON BOURG,3,False,4,2.711667,46.508333,200.0,True,2024-12-10 21:36:23.263,2025-10-07 17:14:11.148
331,03127004,HERISSON PONTS-ET-CHAUSSEES,3,False,4,2.711667,46.508333,199.0,True,2024-12-10 21:36:23.263,2025-10-07 17:14:11.148
332,03127005,HERISSON-SPC,3,True,5,2.712167,46.507667,203.0,True,2024-12-10 21:28:04.978,2025-10-07 17:06:12.219
333,03130001,ISLE-ET-BARDAIS CARRAGUT,3,False,4,2.793333,46.688333,235.0,True,2024-12-10 21:36:23.263,2025-10-07 17:14:11.150
334,03130002,ISLE-ET-BARDAIS,3,True,2,2.730167,46.663333,262.0,True,2024-12-10 21:28:04.978,2025-10-07 17:06:12.217
335,03130003,ISLE-ET-BARDAIS MARMANDE,3,False,4,2.793333,46.688333,250.0,True,2024-12-10 21:36:23.264,2025-10-07 17:14:11.151
336,03130004,ISLE-ET-BARDAIS TRONCAIS,3,False,4,2.793333,46.688333,300.0,True,2024-12-10 21:36:23.264,2025-10-07 17:14:11.152
337,03132001,JALIGNY,3,False,4,3.591,46.369333,285.0,True,2024-12-10 21:36:23.263,2025-10-07 17:14:11.145
338,03135001,LALIZOLLE,3,False,4,2.983667,46.176333,618.0,True,2024-12-10 21:36:23.263,2025-10-07 17:14:11.145
339,03135002,LALIZOLLE,3,False,4,3.0205,46.143667,525.0,True,2024-12-10 21:36:23.263,2025-10-07 17:14:11.146
340,03138001,LAPALISSE,3,False,4,3.638333,46.248333,285.0,True,2024-12-10 21:36:23.263,2025-10-07 17:14:11.150
341,03138002,LAPALISSE LES MINAIRES,3,False,4,3.628333,46.248333,364.0,True,2024-12-10 21:36:23.263,2025-10-07 17:14:11.151
342,03138003,LAPALISSE AGGLOMERATION,3,False,4,3.628333,46.248333,287.0,True,2024-12-10 21:36:23.263,2025-10-07 17:14:11.152
343,03139002,LAPRUGNE,3,False,4,3.797833,46.004333,1093.0,True,2024-12-10 21:36:23.263,2025-10-07 17:14:11.153
344,03139003,LAPRUGNE LA MANILLIERE,3,False,4,3.721667,46.013333,710.0,True,2024-12-10 21:36:23.263,2025-10-07 17:14:11.154
345,03149001,LOUCHY-MONTFAND GOUZOLLES,3,False,4,3.243333,46.306667,270.0,True,2024-12-10 21:36:23.263,2025-10-07 17:14:11.145
346,03149002,LOUCHY-MONTFAND,3,False,4,3.241833,46.303667,280.0,True,2024-12-10 21:36:23.263,2025-10-07 17:14:11.146
347,03155001,LURCY-LEVIS,3,False,4,2.935167,46.730167,206.0,True,2024-12-10 21:36:23.263,2025-10-07 17:14:11.149
348,03155003,LURCY-LEVIS SA,3,True,1,2.947667,46.718333,225.0,True,2024-12-10 21:28:04.978,2025-10-07 17:06:12.218
349,03156001,LUSIGNY,3,False,4,3.484333,46.588833,249.0,True,2024-12-10 21:36:23.263,2025-10-07 17:14:11.153
350,03158001,MAILLET,3,False,4,2.691333,46.4935,280.0,True,2024-12-10 21:36:23.263,2025-10-07 17:14:11.153
351,03159001,MALICORNE,3,False,4,2.7775,46.300333,400.0,True,2024-12-10 21:28:04.978,2025-10-07 17:06:12.219
352,03161001,MARCILLAT-EN-COMBRAILLES,3,False,4,2.638333,46.166,494.0,True,2024-12-10 21:36:23.263,2025-10-07 17:14:11.145
353,03162001,MARIGNY,3,True,2,3.195833,46.581667,249.0,True,2024-12-10 21:28:04.978,2025-10-07 17:06:12.217
354,03165001,MAYET-DE-MONTAG,3,False,4,3.684,46.076833,542.0,True,2024-12-10 21:36:23.264,2025-10-07 17:14:11.146
355,03165002,LE MAYET-DE-MONTAGNE-EDF,3,False,4,3.666667,46.07,480.0,True,2024-12-10 21:36:23.264,2025-10-07 17:14:11.147
356,03165003,LE MAYET-DE-MONTAGNE BOURG,3,False,4,3.666667,46.07,532.0,True,2024-12-10 21:36:23.264,2025-10-07 17:14:11.149
357,03165004,LE MAYET-DE-MONTAGNE,3,False,4,3.666667,46.07,554.0,True,2024-12-10 21:36:23.264,2025-10-07 17:14:11.149
358,03165005,LE-MAYET-DE-MONTAGNE-SPC,3,True,5,3.661667,46.072833,540.0,True,2024-12-10 21:28:04.978,2025-10-07 17:06:12.218
359,03168001,MEAULNE,3,False,4,2.610167,46.610833,218.0,True,2024-12-10 21:36:23.263,2025-10-07 17:14:11.152
360,03180001,MONTBEUGNY,3,True,1,3.423167,46.536333,275.0,True,2024-12-10 21:28:04.978,2025-10-07 17:06:12.217
361,03181001,MONTCOMBROUX-LES-MINES,3,False,4,3.738333,46.351667,346.0,True,2024-12-10 21:36:23.263,2025-10-07 17:14:11.147
362,03183001,LE MONTET PEPINIERES,3,False,4,3.053333,46.408333,493.0,True,2024-12-10 21:36:23.263,2025-10-07 17:14:11.148
363,03185001,MONTLUCON,3,False,4,2.606667,46.32,207.0,True,2024-12-10 21:36:23.263,2025-10-07 17:14:11.150
364,03185002,MONTLUCON,3,False,4,2.605,46.34,227.0,True,2024-12-10 21:36:23.263,2025-10-07 17:14:11.151
365,03185006,MONTLUCON,3,False,3,2.596333,46.365,207.0,True,2024-12-10 21:28:04.979,2025-10-07 17:06:12.218
366,03185007,MONTLUCON,3,True,1,2.574667,46.355167,229.0,True,2024-12-10 21:28:04.978,2025-10-07 17:06:12.217
367,03185008,MONTLUCON-SPC,3,False,5,2.598333,46.351667,208.0,True,2024-12-10 21:28:04.978,2025-10-07 17:06:12.219
368,03186001,MONTMARAULT,3,False,3,2.9525,46.314833,466.0,True,2024-12-10 21:28:04.978,2025-10-07 17:06:12.218
369,03186002,MONTMARAULT AGGLOMERATION,3,False,4,2.955,46.316667,483.0,True,2024-12-10 21:36:23.263,2025-10-07 17:14:11.151
370,03186003,MONTMARAULT-SPC,3,True,5,2.953333,46.315,475.0,True,2024-12-10 21:28:04.978,2025-10-07 17:06:12.218
371,03187001,MONTOLDRE,3,False,4,3.449167,46.3275,280.0,True,2024-12-10 21:36:23.263,2025-10-07 17:14:11.146
372,03190001,MOULINS PONTS-ET-CHAUSSEES,3,False,4,3.333333,46.566667,215.0,True,2024-12-10 21:36:23.263,2025-10-07 17:14:11.146
373,03190002,MOULINS ECOLE NORMALE,3,False,4,3.333333,46.566667,222.0,True,2024-12-10 21:28:04.978,2025-10-07 17:06:12.218
374,03190003,MOULINS-SPC,3,True,5,3.325667,46.561667,214.0,True,2024-12-10 21:28:04.978,2025-10-07 17:06:12.218
375,03193001,NASSIGNY,3,False,4,2.616667,46.483333,205.0,True,2024-12-10 21:36:23.263,2025-10-07 17:14:11.147
376,03193002,NASSIGNY,3,False,4,2.605,46.5,196.0,True,2024-12-10 21:36:23.263,2025-10-07 17:14:11.147
377,03195001,NERIS-LES-BAINS BOURG,3,False,4,2.66,46.286667,350.0,True,2024-12-10 21:36:23.263,2025-10-07 17:14:11.148
378,03197001,NEUILLY-LE-REAL,3,False,4,3.431667,46.463333,260.0,True,2024-12-10 21:36:23.263,2025-10-07 17:14:11.147
379,03200001,NEUVY,3,False,3,3.2855,46.549667,250.0,True,2024-12-10 21:28:04.978,2025-10-07 17:06:12.218
380,03203001,PARAY-LE-FRESIL,3,False,4,3.61,46.655,227.0,True,2024-12-10 21:36:23.263,2025-10-07 17:14:11.147
381,03204001,PARAY-SOUS-BRIAILLES,3,True,2,3.337833,46.2835,250.0,True,2024-12-10 21:28:04.979,2025-10-07 17:06:12.218
382,03211001,PREMILHAT,3,False,4,2.536667,46.311667,300.0,True,2024-12-10 21:36:23.263,2025-10-07 17:14:11.147
383,03214001,ROCLES SANATORIUM,3,False,4,3.031667,46.421667,430.0,True,2024-12-10 21:36:23.263,2025-10-07 17:14:11.148
384,03220001,SAINT-BONNET-DE-ROCHEFORT,3,False,4,3.136667,46.146667,339.0,True,2024-12-10 21:36:23.263,2025-10-07 17:14:11.147
385,03221001,SAINT-BONNET-TRONCAIS,3,False,4,2.693333,46.66,270.0,True,2024-12-10 21:36:23.263,2025-10-07 17:14:11.148
386,03224001,SAINT-CLEMENT AGGLOMERATION,3,False,4,3.703333,46.061667,485.0,True,2024-12-10 21:36:23.264,2025-10-07 17:14:11.148
387,03226001,SAINT DIDIER_SAPC,3,True,2,3.850167,46.365333,293.0,True,2024-12-10 21:28:04.978,2025-10-07 17:06:12.218
388,03236001,SAINT-GERMAIN-DES-FOSSES,3,False,4,3.435833,46.1905,286.0,True,2024-12-10 21:28:04.978,2025-10-07 17:06:12.218
389,03237001,SAINT-GERMAIN-DE-SALLES ECOLE,3,False,4,3.213333,46.178333,305.0,True,2024-12-10 21:36:23.264,2025-10-07 17:14:11.150
390,03238001,SAINT-HILAIRE BOURG,3,False,4,3.021667,46.493333,314.0,True,2024-12-10 21:36:23.264,2025-10-07 17:14:11.150
391,03240001,ST-LEON,3,True,2,3.685833,46.4025,378.0,True,2024-12-10 21:28:04.978,2025-10-07 17:06:12.218
392,03248001,ST-NICOLAS,3,True,1,3.805167,46.0515,1022.0,True,2024-12-10 21:28:04.978,2025-10-07 17:06:12.218
393,03253001,ST-POURCAIN-BES,3,False,3,3.615833,46.491667,268.0,True,2024-12-10 21:28:04.979,2025-10-07 17:06:12.218
394,03253002,SAINT-POURCAIN-SUR-BESBRE-SPC,3,True,5,3.653333,46.476667,249.0,True,2024-12-10 21:28:04.979,2025-10-07 17:06:12.218
395,03254001,SAINT-POURCAIN-SUR-SIOULE,3,False,4,3.29,46.306667,238.0,True,2024-12-10 21:36:23.264,2025-10-07 17:14:11.149
396,03254002,SAINT-POURCAIN-SUR-SIOULE-AGG,3,False,4,3.29,46.306667,238.0,True,2024-12-10 21:36:23.264,2025-10-07 17:14:11.149
397,03257001,SAINT-PRIX,3,False,4,3.635,46.238333,295.0,True,2024-12-10 21:36:23.264,2025-10-07 17:14:11.149
398,03257002,SAINT-PRIX-SPC,3,True,5,3.647167,46.229167,292.0,True,2024-12-10 21:28:04.979,2025-10-07 17:06:12.218
399,03266001,SANSSAT SAINT-ALYRE,3,False,4,3.475,46.255,300.0,True,2024-12-10 21:36:23.264,2025-10-07 17:14:11.149
400,03277001,TARGET,3,False,4,3.057,46.289833,410.0,True,2024-12-10 21:36:23.264,2025-10-07 17:14:11.149
401,03277002,TARGET AGGLOMERATION,3,False,4,3.061667,46.288333,437.0,True,2024-12-10 21:36:23.264,2025-10-07 17:14:11.149
402,03279001,TEILLET-ARGENTY-SPC,3,False,5,2.535833,46.241667,365.0,True,2024-12-10 21:28:04.979,2025-10-07 17:06:12.218
403,03285001,TORTEZAIS_SAPC,3,True,2,2.857,46.451333,256.0,True,2024-12-10 21:28:04.979,2025-10-07 17:06:12.218
404,03287001,TREBAN BOURG,3,False,4,3.173333,46.403333,364.0,True,2024-12-10 21:36:23.264,2025-10-07 17:14:11.150
405,03291001,TREZELLES LE PETIT ROCHEFORT,3,False,4,3.593333,46.328333,290.0,True,2024-12-10 21:36:23.264,2025-10-07 17:14:11.150
406,03292001,TRONGET,3,False,4,3.103333,46.403333,450.0,True,2024-12-10 21:36:23.264,2025-10-07 17:14:11.150
407,03293001,URCAY MAIRIE,3,False,4,2.59,46.625,169.0,True,2024-12-10 21:36:23.264,2025-10-07 17:14:11.150
408,03297001,VALLON-EN-SULL,3,False,4,2.615,46.546667,170.0,True,2024-12-10 21:36:23.264,2025-10-07 17:14:11.150
409,03310001,VICHY-VILLE,3,True,2,3.439,46.117667,255.0,True,2024-12-10 21:28:04.979,2025-10-07 17:06:12.219
410,03310002,VICHY RUE DE VINGRE,3,False,4,3.426667,46.13,263.0,True,2024-12-10 21:36:23.264,2025-10-07 17:14:11.151
411,03311001,VICQ,3,False,4,3.089167,46.1495,346.0,True,2024-12-10 21:36:23.264,2025-10-07 17:14:11.151
412,03316001,VILLENEUVE,3,False,4,3.251833,46.665833,223.0,True,2024-12-10 21:36:23.264,2025-10-07 17:14:11.151
413,03316002,VILLENEUVE-SUR-ALLIER-PARC,3,False,4,3.25,46.658333,228.0,True,2024-12-10 21:36:23.264,2025-10-07 17:14:11.151
414,03319001,VOUSSAC,3,False,4,3.063333,46.328333,423.0,True,2024-12-10 21:36:23.264,2025-10-07 17:14:11.151
415,03321001,YZEURE,3,True,2,3.352833,46.579167,242.0,True,2024-12-10 21:28:04.979,2025-10-07 17:06:12.219
416,04001002,AIGLUN,4,False,4,6.136667,44.071667,655.0,True,2024-12-10 21:36:25.722,2025-10-07 17:14:13.234
417,04004001,ALLEMAGNE-EN-PROVENCE,4,False,4,6.006667,43.781667,450.0,True,2024-12-10 21:36:25.722,2025-10-07 17:14:13.234
418,04004003,ALLEMAGNE-EN-PROVENCE BOURG,4,False,4,6.006667,43.783333,600.0,True,2024-12-10 21:36:25.722,2025-10-07 17:14:13.234
419,04006002,LA FOUX,4,False,4,6.625,44.241667,1817.0,True,2024-12-10 21:36:25.723,2025-10-07 17:14:13.234
420,04006003,ALLOS BOURG,4,False,4,6.626667,44.241667,1475.0,True,2024-12-10 21:36:25.723,2025-10-07 17:14:13.236
421,04006004,ALLOS,4,False,3,6.631667,44.226667,1370.0,True,2024-12-10 21:28:07.553,2025-10-07 17:06:14.725
422,04006005,ALLOS_SAPC,4,True,2,6.625333,44.2425,1400.0,True,2024-12-10 21:28:07.553,2025-10-07 17:06:14.725
423,04006400,LA FOUX D ALLOS_NIVO,4,True,4,6.561667,44.289833,1900.0,True,2024-12-10 21:28:07.553,2025-10-07 17:06:14.727
424,04008001,ANNOT PRE DE MONGE,4,False,4,6.668333,43.968333,705.0,True,2024-12-10 21:36:25.727,2025-10-07 17:14:13.234
425,04008002,ANNOT AGGLOMERATION,4,False,4,6.668333,43.968333,700.0,True,2024-12-10 21:36:25.727,2025-10-07 17:14:13.235
426,04018001,BANON,4,False,4,5.63,44.038333,780.0,True,2024-12-10 21:36:25.727,2025-10-07 17:14:13.236
427,04018003,BANON BOURG,4,False,4,5.628333,44.04,800.0,True,2024-12-10 21:36:25.727,2025-10-07 17:14:13.237
428,04019001,BARCELONNETTE,4,True,1,6.670167,44.391167,1155.0,True,2024-12-10 21:28:07.554,2025-10-07 17:06:14.728
429,04019004,BARCELONNETTE BOURG,4,False,4,6.65,44.388333,1135.0,True,2024-12-10 21:36:25.727,2025-10-07 17:14:13.239
430,04019005,BARCELONNETTE,4,False,4,6.65,44.388333,1135.0,True,2024-12-10 21:36:25.727,2025-10-07 17:14:13.241
431,04019006,BARCELLONNETTE EN,4,False,4,6.65,44.388333,1173.0,True,2024-12-10 21:36:25.727,2025-10-07 17:14:13.243
432,04019401,PRA LOUP -S-,4,True,4,6.583833,44.357333,2120.0,True,2024-12-10 21:36:25.727,2025-10-07 17:14:13.244
433,04019403,LE SAUZE -S-,4,True,4,6.72,44.352667,2085.0,True,2024-12-10 21:36:25.727,2025-10-07 17:14:13.234
434,04019404,PRA LOUP_NIVO,4,True,4,6.584667,44.36,2100.0,True,2024-12-10 21:28:07.554,2025-10-07 17:06:14.726
435,04022001,BARREME,4,True,2,6.372333,43.957167,743.0,True,2024-12-10 21:28:07.555,2025-10-07 17:06:14.726
436,04022003,BARREME AGGLOMERATION,4,False,4,6.366667,43.951667,720.0,True,2024-12-10 21:36:25.724,2025-10-07 17:14:13.236
437,04023001,BAYONS,4,True,2,6.178667,44.342667,886.0,True,2024-12-10 21:28:07.555,2025-10-07 17:06:14.728
438,04024001,BEAUJEU,4,False,4,6.357833,44.234333,1050.0,True,2024-12-10 21:36:25.726,2025-10-07 17:14:13.238
439,04024002,BEAUJEU HAMEAU DE SAINT-PIERRE,4,False,4,6.37,44.203333,920.0,True,2024-12-10 21:36:25.726,2025-10-07 17:14:13.238
440,04024004,BEAUJEU ST PIERRE,4,True,2,6.385167,44.209833,960.0,True,2024-12-10 21:28:07.556,2025-10-07 17:06:14.728
441,04027001,BEVONS,4,False,4,5.878333,44.176667,600.0,True,2024-12-10 21:36:25.726,2025-10-07 17:14:13.240
442,04027002,BEVONS,4,False,4,5.861833,44.167,520.0,True,2024-12-10 21:36:25.726,2025-10-07 17:14:13.242
443,04034003,LA BRILLANNE,4,False,4,5.8865,43.9235,385.0,True,2024-12-10 21:36:25.726,2025-10-07 17:14:13.234
444,04034004,LA BRILLANNE-SPC,4,False,5,5.893667,43.934667,350.0,True,2024-12-10 21:28:07.554,2025-10-07 17:06:14.726
445,04039001,CASTELLANE,4,True,2,6.508,43.849167,729.0,True,2024-12-10 21:28:07.555,2025-10-07 17:06:14.726
446,04039002,PALLUD,4,False,4,6.496667,43.866667,820.0,True,2024-12-10 21:36:25.727,2025-10-07 17:14:13.239
447,04039003,CASTELLANE AGGLOMERATION,4,False,4,6.511667,43.846667,786.0,True,2024-12-10 21:36:25.727,2025-10-07 17:14:13.242
448,04039011,CASTELLANE BOURG,4,False,4,6.511667,43.846667,723.0,True,2024-12-10 21:36:25.723,2025-10-07 17:14:13.242
449,04040001,CASTELLARD,4,False,4,6.125,44.186667,1199.0,True,2024-12-10 21:36:25.724,2025-10-07 17:14:13.242
450,04040002,CASTELLARD(LE),4,False,4,6.125,44.186667,1070.0,True,2024-12-10 21:36:25.724,2025-10-07 17:14:13.242
451,04041001,LE CASTELLET,4,True,2,5.9795,43.938333,473.0,True,2024-12-10 21:28:07.556,2025-10-07 17:06:14.727
452,04045001,CERESTE,4,False,4,5.566,43.850667,350.0,True,2024-12-10 21:36:25.726,2025-10-07 17:14:13.235
453,04049001,ST AUBAN,4,True,0,5.989667,44.062167,458.0,True,2024-12-10 21:28:07.556,2025-10-07 17:06:14.726
454,04049002,CHATEAU-ARNOUX-SAINT-AUBAN-P-C,4,False,4,6.008333,44.095,423.0,True,2024-12-10 21:36:25.726,2025-10-07 17:14:13.237
455,04049004,CHATEAU-ARNOUX-SAINT-AUBAN-BG,4,False,4,6.006667,44.093333,451.0,True,2024-12-10 21:36:25.727,2025-10-07 17:14:13.238
456,04049005,CHATEAU-ARNOUX-SAINT-AUBAN-BG,4,False,4,6.006667,44.093333,460.0,True,2024-12-10 21:36:25.727,2025-10-07 17:14:13.239
457,04051001,CHATEAUNEUF-MIRAVAIL,4,False,4,5.726667,44.161833,660.0,True,2024-12-10 21:36:25.727,2025-10-07 17:14:13.239
458,04061001,COLMARS LA BUISSIERE,4,False,4,6.625,44.181667,1200.0,True,2024-12-10 21:36:25.727,2025-10-07 17:14:13.241
459,04062400,STE ANNE CONDAMINE -S-,4,True,4,6.7015,44.458833,2333.0,True,2024-12-10 21:36:25.727,2025-10-07 17:14:13.234
460,04063001,CORBIERES LES AIRES,4,False,4,5.75,43.761667,304.0,True,2024-12-10 21:36:25.727,2025-10-07 17:14:13.235
461,04063002,CORBIERES PASSAGE A NIVEAU 4,4,False,4,5.75,43.761667,275.0,True,2024-12-10 21:36:25.727,2025-10-07 17:14:13.236
462,04068001,DAUPHIN,4,True,1,5.767167,43.909833,427.0,True,2024-12-10 21:28:07.554,2025-10-07 17:06:14.727
463,04070002,DIGNE-LES-BAINS LES SIEYES,4,False,4,6.235,44.095,595.0,True,2024-12-10 21:36:25.728,2025-10-07 17:14:13.239
464,04070003,DIGNE-LES-BAINS LES DOURBES,4,False,4,6.235,44.095,1025.0,True,2024-12-10 21:36:25.728,2025-10-07 17:14:13.241
465,04070005,DIGNE-LES-BAINS AGGLOMERATION,4,False,4,6.235,44.095,580.0,True,2024-12-10 21:36:25.724,2025-10-07 17:14:13.242
466,04070007,DIGNE,4,False,2,6.186667,44.076667,560.0,True,2024-12-10 21:28:07.556,2025-10-07 17:06:14.728
467,04070008,DIGNE,4,False,2,6.225,44.083333,585.0,True,2024-12-10 21:28:07.556,2025-10-07 17:06:14.726
468,04070009,DIGNE LES BAINS,4,True,1,6.186667,44.07,554.0,True,2024-12-10 21:28:07.556,2025-10-07 17:06:14.727
469,04074001,ENTRAGES,4,False,4,6.253333,44.016667,600.0,True,2024-12-10 21:36:25.726,2025-10-07 17:14:13.240
470,04076001,ENTREVAUX,4,False,4,6.8165,43.950333,475.0,True,2024-12-10 21:36:25.726,2025-10-07 17:14:13.240
471,04079001,L'ESCALE BARRAGE,4,False,4,6.025,44.083333,435.0,True,2024-12-10 21:36:25.726,2025-10-07 17:14:13.241
472,04085001,FAUCON-DU-CAIRE BOURG,4,False,4,6.091667,44.396667,875.0,True,2024-12-10 21:36:25.726,2025-10-07 17:14:13.242
473,04088001,FORCALQUIER,4,True,4,5.784667,43.962833,535.0,True,2024-12-10 21:36:25.726,2025-10-07 17:14:13.242
474,04088003,FORCALQUIER,4,False,4,5.78,43.933333,470.0,True,2024-12-10 21:36:25.726,2025-10-07 17:14:13.242
475,04094001,GREOUX-ITCF,4,False,3,5.858333,43.751667,296.0,True,2024-12-10 21:36:25.726,2025-10-07 17:14:13.243
476,04094002,GREOUX,4,False,2,5.883333,43.756667,359.0,True,2024-12-10 21:28:07.554,2025-10-07 17:06:14.726
477,04096001,JAUSIERS,4,False,4,6.761667,44.405,1510.0,True,2024-12-10 21:36:25.727,2025-10-07 17:14:13.236
478,04096002,JAUSIERS-ST ANNE,4,True,2,6.725167,44.413667,1240.0,True,2024-12-10 21:28:07.555,2025-10-07 17:06:14.726
479,04096401,RESTEFOND-NIVOSE,4,True,3,6.8,44.34,2550.0,True,2024-12-10 21:28:07.555,2025-10-07 17:06:14.728
480,04099001,LAMBRUISSE,4,False,4,6.4455,44.042833,1123.0,True,2024-12-10 21:36:25.724,2025-10-07 17:14:13.238
481,04100001,LARCHE BOURG,4,False,4,6.845,44.451667,1700.0,True,2024-12-10 21:36:25.724,2025-10-07 17:14:13.239
482,04100401,LARCHE -S-,4,False,4,6.846333,44.448833,1670.0,True,2024-12-10 21:36:25.725,2025-10-07 17:14:13.240
483,04101001,LARDIERS,4,False,4,5.7135,44.052333,747.0,True,2024-12-10 21:36:25.725,2025-10-07 17:14:13.240
484,04102002,LAUZET(LE),4,False,4,6.433333,44.433333,900.0,True,2024-12-10 21:36:25.725,2025-10-07 17:14:13.234
485,04102004,LAUZET(LE),4,False,4,6.426667,44.441667,1070.0,True,2024-12-10 21:36:25.725,2025-10-07 17:14:13.234
486,04102005,LE LAUZET-UBAYE UBAYE - BOURG,4,False,4,6.431667,44.43,765.0,True,2024-12-10 21:36:25.726,2025-10-07 17:14:13.234
487,04102006,LE LAUZET-UBAYE BOURG,4,False,4,6.433333,44.43,917.0,True,2024-12-10 21:36:25.726,2025-10-07 17:14:13.236
488,04106001,LURS,4,False,4,5.866333,43.9445,385.0,True,2024-12-10 21:36:25.726,2025-10-07 17:14:13.237
489,04108001,MALIJAI BOURG,4,False,4,6.03,44.046667,430.0,True,2024-12-10 21:36:25.726,2025-10-07 17:14:13.238
490,04111001,MANE BOURG,4,False,4,5.768333,43.936667,442.0,True,2024-12-10 21:36:25.726,2025-10-07 17:14:13.239
491,04112001,MANOSQUE,4,False,4,5.785,43.843333,380.0,True,2024-12-10 21:36:25.726,2025-10-07 17:14:13.240
492,04112002,MANOSQUE PISCINE,4,False,4,5.785,43.831667,350.0,True,2024-12-10 21:36:25.726,2025-10-07 17:14:13.242
493,04112003,MANOSQUE PELICIER,4,False,4,5.785,43.831667,610.0,True,2024-12-10 21:36:25.726,2025-10-07 17:14:13.241
494,04112004,MANOSQUE AGGLOMERATION,4,False,4,5.785,43.831667,377.0,True,2024-12-10 21:36:25.726,2025-10-07 17:14:13.234
495,04112005,MANOSQUE BOURG,4,False,4,5.785,43.833333,400.0,True,2024-12-10 21:36:25.726,2025-10-07 17:14:13.235
496,04112006,MANOSQUE,4,False,2,5.817167,43.797,289.0,True,2024-12-10 21:28:07.555,2025-10-07 17:06:14.726
497,04112009,MANOSQUE,4,False,2,5.793333,43.8355,457.0,True,2024-12-10 21:28:07.556,2025-10-07 17:06:14.726
498,04112010,MANOSQUE-PIMARLET,4,False,4,5.801,43.837167,375.0,True,2024-12-10 21:36:25.726,2025-10-07 17:14:13.237
499,04115001,MEAILLES_SAPC,4,True,2,6.6295,44.031167,1090.0,True,2024-12-10 21:28:07.556,2025-10-07 17:06:14.727
500,04116001,MEES(LES),4,False,4,5.928333,43.985,375.0,True,2024-12-10 21:36:25.726,2025-10-07 17:14:13.240
501,04116002,LES MEES LES GRANONS,4,False,4,5.975,44.028333,490.0,True,2024-12-10 21:36:25.726,2025-10-07 17:14:13.241
502,04116003,LES MEES PLAN DES MEES,4,False,4,5.975,44.028333,420.0,True,2024-12-10 21:36:25.726,2025-10-07 17:14:13.235
503,04120001,MEYRONNES BOURG,4,False,4,6.798333,44.476667,1599.0,True,2024-12-10 21:36:25.726,2025-10-07 17:14:13.235
504,04123001,MISON,4,False,4,5.888333,44.241667,560.0,True,2024-12-10 21:36:25.726,2025-10-07 17:14:13.235
505,04124001,MONTAGNAC-MONTPEZAT,4,False,4,6.091667,43.778333,480.0,True,2024-12-10 21:36:25.727,2025-10-07 17:14:13.235
506,04126001,MONTCLAR_SAPC,4,True,2,6.333333,44.391833,1197.0,True,2024-12-10 21:28:07.556,2025-10-07 17:06:14.726
507,04126400,COL ST JEAN -S-,4,False,4,6.389833,44.399833,2230.0,True,2024-12-10 21:36:25.727,2025-10-07 17:14:13.235
508,04134001,LA MOTTE-DU-CAIRE LE VERGER,4,False,4,6.028333,44.325,690.0,True,2024-12-10 21:36:25.727,2025-10-07 17:14:13.235
509,04134002,LA MOTTE DU CAIRE,4,True,2,6.0305,44.326667,665.0,True,2024-12-10 21:28:07.556,2025-10-07 17:06:14.726
510,04134003,LA MOTTE,4,False,4,6.0355,44.356333,750.0,True,2024-12-10 21:36:25.727,2025-10-07 17:14:13.236
511,04135001,MOUSTIERS,4,False,4,6.221667,43.841667,610.0,True,2024-12-10 21:36:25.727,2025-10-07 17:14:13.236
512,04135002,MOUSTIERS-SAINTE-MARIE LA CLUE,4,False,4,6.275,43.816667,865.0,True,2024-12-10 21:36:25.727,2025-10-07 17:14:13.236
513,04135003,MOUSTIERS-SAINTE-MARIE LA TOUR,4,False,4,6.22,43.845,631.0,True,2024-12-10 21:36:25.727,2025-10-07 17:14:13.236
514,04135004,SEGRIEZ,4,False,4,6.175,43.856667,740.0,True,2024-12-10 21:36:25.727,2025-10-07 17:14:13.236
515,04136001,LA MURE-ARGENS,4,True,1,6.520167,43.977,920.0,True,2024-12-10 21:28:07.556,2025-10-07 17:06:14.726
516,04139001,NOYERS-SUR-JABRON BOURG,4,False,4,5.826667,44.168333,558.0,True,2024-12-10 21:36:25.727,2025-10-07 17:14:13.236
517,04142001,OPPEDETTE-SPC,4,True,5,5.5845,43.918833,505.0,True,2024-12-10 21:28:07.556,2025-10-07 17:06:14.727
518,04144001,LA PALUD-SUR-VERDON,4,False,4,6.336667,43.811667,1110.0,True,2024-12-10 21:36:25.727,2025-10-07 17:14:13.236
519,04149001,PEYRUIS BOURG,4,False,4,5.935,44.026667,411.0,True,2024-12-10 21:36:25.727,2025-10-07 17:14:13.236
520,04152001,PIERREVERT BOURG,4,False,4,5.748333,43.811667,430.0,True,2024-12-10 21:36:25.727,2025-10-07 17:14:13.238
521,04155001,PRADS-HAUTE-BLEONE,4,False,4,6.418333,44.181667,968.0,True,2024-12-10 21:36:25.727,2025-10-07 17:14:13.240
522,04157001,PUIMOISSON,4,False,2,6.168833,43.871167,775.0,True,2024-12-10 21:28:07.556,2025-10-07 17:06:14.727
523,04158001,QUINSON,4,False,4,6.0385,43.701,380.0,True,2024-12-10 21:36:25.727,2025-10-07 17:14:13.241
524,04158002,QUINSON,4,False,4,6.039833,43.7075,400.0,True,2024-12-10 21:36:25.727,2025-10-07 17:14:13.236
525,04160001,REILLANNE,4,False,4,5.663333,43.87,455.0,True,2024-12-10 21:36:25.727,2025-10-07 17:14:13.242
526,04160002,REIL,4,False,4,5.66,43.881667,560.0,True,2024-12-10 21:36:25.727,2025-10-07 17:14:13.242
527,04160003,REILLANNE BOURG,4,False,4,5.66,43.878333,490.0,True,2024-12-10 21:36:25.727,2025-10-07 17:14:13.242
528,04161001,MEOLANS-REVEL,4,False,4,6.508333,44.398333,1209.0,True,2024-12-10 21:36:25.727,2025-10-07 17:14:13.242
529,04166001,RIEZ BOURG,4,False,4,6.088333,43.818333,520.0,True,2024-12-10 21:36:25.727,2025-10-07 17:14:13.236
530,04172001,ROUMOULES,4,False,4,6.150833,43.7935,665.0,True,2024-12-10 21:36:25.727,2025-10-07 17:14:13.236
531,04173001,ST-ANDRE,4,False,4,6.511667,43.968333,890.0,True,2024-12-10 21:36:25.727,2025-10-07 17:14:13.237
532,04173002,ST ANDRE ALPES,4,False,2,6.511667,43.958333,882.0,True,2024-12-10 21:28:07.556,2025-10-07 17:06:14.728
533,04178002,SAINT-ETIENNE-LES-ORGUES,4,False,4,5.778333,44.045,1530.0,True,2024-12-10 21:36:25.727,2025-10-07 17:14:13.237
534,04178031,SAINT-ETIENNE-LES-ORGUES-AGG,4,False,4,5.778333,44.045,687.0,True,2024-12-10 21:36:25.727,2025-10-07 17:14:13.237
535,04184001,ST JURS,4,True,2,6.2005,43.900833,867.0,True,2024-12-10 21:28:07.556,2025-10-07 17:06:14.727
536,04189001,ST-MARTIN,4,False,4,5.94,43.763333,392.0,True,2024-12-10 21:36:25.727,2025-10-07 17:14:13.237
537,04192001,ST MICHEL L OBS,4,False,2,5.713333,43.933333,650.0,True,2024-12-10 21:28:07.556,2025-10-07 17:06:14.727
538,04192002,SAINT-MICHEL-L'OBSERVATOIRE,4,False,4,5.713333,43.91,611.0,True,2024-12-10 21:36:25.727,2025-10-07 17:14:13.237
539,04193001,SAINT-PAUL BOURG,4,False,4,6.751667,44.515,1460.0,True,2024-12-10 21:36:25.727,2025-10-07 17:14:13.240
540,04193002,ST PAUL,4,False,4,6.843333,44.593,1908.0,True,2024-12-10 21:36:25.727,2025-10-07 17:14:13.241
541,04193003,SAINT-PAUL FOUILLOUSE,4,False,4,6.751667,44.515,1875.0,True,2024-12-10 21:36:25.727,2025-10-07 17:14:13.241
542,04193004,SAINT-PAUL SERENNES,4,False,4,6.751667,44.515,1531.0,True,2024-12-10 21:36:25.727,2025-10-07 17:14:13.237
543,04193005,SAINT-PAUL TOURNOUX,4,False,4,6.751667,44.515,1360.0,True,2024-12-10 21:36:25.727,2025-10-07 17:14:13.237
544,04193006,COMBE,4,False,4,6.856667,44.596667,1960.0,True,2024-12-10 21:36:25.727,2025-10-07 17:14:13.237
545,04193400,MALJASSET_NIVO,4,True,4,6.843333,44.593,1908.0,True,2024-12-10 21:28:07.556,2025-10-07 17:06:14.727
546,04193401,MALJASSET -S-,4,False,4,6.8435,44.592667,1900.0,True,2024-12-10 21:36:25.727,2025-10-07 17:14:13.238
547,04195001,PONS,4,False,4,6.61,44.386667,1132.0,True,2024-12-10 21:36:25.727,2025-10-07 17:14:13.238
548,04197011,CHEMINS,4,False,4,5.768333,43.786667,300.0,True,2024-12-10 21:36:25.727,2025-10-07 17:14:13.238
549,04199001,SAINT-VINCENT-SUR-JABRON BOURG,4,False,4,5.741667,44.171667,1300.0,True,2024-12-10 21:36:25.727,2025-10-07 17:14:13.238
550,04199002,SAINT-VINCENT-SUR-JABRON BOURG,4,False,4,5.741667,44.171667,1300.0,True,2024-12-10 21:36:25.727,2025-10-07 17:14:13.238
551,04200001,SALIGNAC-SPC,4,True,5,5.977,44.137167,450.0,True,2024-12-10 21:28:07.556,2025-10-07 17:06:14.727
552,04205001,SEYNE,4,True,4,6.3645,44.3515,1210.0,True,2024-12-10 21:28:07.556,2025-10-07 17:06:14.727
553,04205004,SEYNE-COL MAURE,4,False,4,6.400167,44.320333,1347.0,True,2024-12-10 21:36:25.727,2025-10-07 17:14:13.239
554,04206001,SIGONCE L'AIRE,4,False,4,5.841667,43.996667,500.0,True,2024-12-10 21:36:25.727,2025-10-07 17:14:13.239
555,04209001,SISTERON BEAULIEU,4,False,4,5.941667,44.195,480.0,True,2024-12-10 21:36:25.727,2025-10-07 17:14:13.239
556,04209004,SISTERON-CHAUMI,4,False,4,5.941667,44.215,485.0,True,2024-12-10 21:36:25.727,2025-10-07 17:14:13.239
557,04209005,SISTERON,4,True,2,5.916,44.2245,500.0,True,2024-12-10 21:28:07.556,2025-10-07 17:06:14.727
558,04217001,THOARD,4,False,4,6.138333,44.16,785.0,True,2024-12-10 21:36:25.727,2025-10-07 17:14:13.239
559,04217002,THOARD,4,False,4,6.138833,44.146833,732.0,True,2024-12-10 21:36:25.727,2025-10-07 17:14:13.239
560,04218001,THORAME-BASSE BOURG,4,False,4,6.5,44.091667,1140.0,True,2024-12-10 21:36:25.727,2025-10-07 17:14:13.239
561,04219001,THORAME HAUTE,4,True,4,6.557333,44.091667,1155.0,True,2024-12-10 21:36:25.727,2025-10-07 17:14:13.239
562,04219002,THORAME-HAUTE,4,False,4,6.595,44.05,1450.0,True,2024-12-10 21:36:25.727,2025-10-07 17:14:13.239
563,04219003,THORAME-HAUTE BOURG,4,False,4,6.553333,44.098333,1200.0,True,2024-12-10 21:36:25.727,2025-10-07 17:14:13.240
564,04222001,TURRIERS,4,True,2,6.1695,44.399,1020.0,True,2024-12-10 21:28:07.556,2025-10-07 17:06:14.727
565,04226001,UVERNET FOURS,4,False,4,6.693,44.319167,1660.0,True,2024-12-10 21:36:25.727,2025-10-07 17:14:13.240
566,04226002,UVERNET-FOURS,4,False,4,6.693333,44.32,1770.0,True,2024-12-10 21:36:25.727,2025-10-07 17:14:13.240
567,04229001,VALBELLE BOURG,4,False,4,5.873333,44.151667,585.0,True,2024-12-10 21:36:25.727,2025-10-07 17:14:13.240
568,04230001,VALENSOLE,4,True,1,6.000833,43.8395,600.0,True,2024-12-10 21:28:07.556,2025-10-07 17:06:14.727
569,04230002,VALENSOLE,4,False,4,5.986667,43.843333,545.0,True,2024-12-10 21:36:25.727,2025-10-07 17:14:13.240
570,04231001,PONT DE FOMBETON,4,True,5,5.921833,44.249167,478.0,True,2024-12-10 21:36:25.727,2025-10-07 17:14:13.240
571,04236001,VERGONS BOURG,4,False,4,6.586667,43.916667,1035.0,True,2024-12-10 21:36:25.727,2025-10-07 17:14:13.241
572,04242001,VILLENEUVE_SPC,4,True,5,5.886167,43.911667,340.0,True,2024-12-10 21:36:25.728,2025-10-07 17:14:13.241
573,04244001,VOLONNE BOURG,4,False,4,6.011667,44.11,440.0,True,2024-12-10 21:36:25.727,2025-10-07 17:14:13.241
574,04244002,VOLONNE AGGLOMERATION,4,False,4,6.011667,44.11,445.0,True,2024-12-10 21:36:25.727,2025-10-07 17:14:13.241
575,04245001,VOLX COURS PASTEUR,4,False,4,5.843333,43.876667,370.0,True,2024-12-10 21:36:25.728,2025-10-07 17:14:13.241
576,05001001,ABRIES,5,True,4,6.928333,44.796667,1560.0,True,2024-12-10 21:36:28.204,2025-10-07 17:14:15.318
577,05001400,ABRIES_NIVO,5,True,4,6.947,44.792833,2018.0,True,2024-12-10 21:28:10.118,2025-10-07 17:06:17.202
578,05001401,ABRIES -S-,5,True,4,6.949667,44.791333,2070.0,True,2024-12-10 21:36:28.204,2025-10-07 17:14:15.318
579,05003001,AIGUILLES AGGLOMERATION,5,False,4,6.868333,44.781667,1470.0,True,2024-12-10 21:36:28.205,2025-10-07 17:14:15.318
580,05004001,ANCELLE,5,True,2,6.209833,44.6245,1354.0,True,2024-12-10 21:28:10.118,2025-10-07 17:06:17.203
581,05007001,ARVIEUX LA CHALP,5,True,4,6.736667,44.781167,1690.0,True,2024-12-10 21:28:10.119,2025-10-07 17:06:17.202
582,05007002,ARVIEUX BRUNISSARD,5,False,4,6.738333,44.766667,1763.0,True,2024-12-10 21:36:28.205,2025-10-07 17:14:15.320
583,05007003,ARVIEUX,5,True,1,6.728,44.796,1825.0,True,2024-12-10 21:28:10.118,2025-10-07 17:06:17.202
584,05007400,ARVIEUX-S-,5,True,4,6.754,44.776667,2078.0,True,2024-12-10 21:36:28.205,2025-10-07 17:14:15.318
585,05013001,BARCILLONNETTE,5,False,4,5.92,44.436667,845.0,True,2024-12-10 21:36:28.204,2025-10-07 17:14:15.323
586,05013003,BARCILLONNETTE,5,False,4,5.927,44.441667,866.0,True,2024-12-10 21:36:28.204,2025-10-07 17:14:15.324
587,05023001,BRIANCON,5,False,4,6.635,44.908333,1324.0,True,2024-12-10 21:28:10.120,2025-10-07 17:06:17.202
588,05023002,BRIANCON,5,False,4,6.638333,44.896667,1406.0,True,2024-12-10 21:36:28.204,2025-10-07 17:14:15.319
589,05023003,BRIANCON STATION MILITAIRE,5,False,4,6.638333,44.896667,1320.0,True,2024-12-10 21:36:28.205,2025-10-07 17:14:15.320
590,05023006,BRIANCON AGGLOMERATION,5,False,4,6.638333,44.896667,1300.0,True,2024-12-10 21:36:28.205,2025-10-07 17:14:15.318
591,05023008,BRIANCON,5,False,4,6.638333,44.896667,1352.0,True,2024-12-10 21:36:28.205,2025-10-07 17:14:15.320
592,05023010,BRIANCON BOURG,5,False,4,6.638333,44.896667,1392.0,True,2024-12-10 21:36:28.205,2025-10-07 17:14:15.320
593,05023012,BRIANCON PONTS-ET-CHAUSSEES,5,False,4,6.638333,44.896667,1321.0,True,2024-12-10 21:36:28.205,2025-10-07 17:14:15.318
594,05023013,BRIANCON-PC,5,False,4,6.638333,44.896667,1307.0,True,2024-12-10 21:36:28.205,2025-10-07 17:14:15.318
595,05023400,ENQUETE AVALANCHE CMAS -S-,5,True,4,6.65,44.891667,1215.0,True,2024-12-10 21:36:28.205,2025-10-07 17:14:15.319
596,05023401,OCCASIONNEL CMAS -S-,5,True,4,6.65,44.891667,1215.0,True,2024-12-10 21:36:28.205,2025-10-07 17:14:15.320
597,05023403,SERRE CHE-BRIANCON PROREL -S-,5,True,4,6.594833,44.901167,2122.0,True,2024-12-10 21:36:28.205,2025-10-07 17:14:15.321
598,05026001,CEILLAC,5,True,4,6.776167,44.671167,1665.0,True,2024-12-10 21:36:28.205,2025-10-07 17:14:15.322
599,05026400,CEILLAC_NIVO,5,True,4,6.776167,44.671167,1665.0,True,2024-12-10 21:28:10.118,2025-10-07 17:06:17.203
600,05026401,CEILLAC -S-,5,True,4,6.802,44.627,2300.0,True,2024-12-10 21:36:28.205,2025-10-07 17:14:15.324
601,05027001,CERVIERES,5,True,2,6.7235,44.869333,1614.0,True,2025-10-07 17:06:17.202,2025-10-07 17:06:17.202
602,05027401,CERVIERES -S-,5,True,4,6.724,44.8285,2150.0,True,2024-12-10 21:36:28.206,2025-10-07 17:14:15.326
603,05028001,CHABESTAN,5,False,4,5.781667,44.471667,755.0,True,2024-12-10 21:36:28.205,2025-10-07 17:14:15.327
604,05029001,CHABOTTES LA MORTE,5,False,4,6.175,44.653333,1346.0,True,2024-12-10 21:36:28.206,2025-10-07 17:14:15.318
605,05031001,CHAMPCELLA,5,False,4,6.57,44.728333,1100.0,True,2024-12-10 21:36:28.206,2025-10-07 17:14:15.318
606,05031002,CHAMPCELLA USINE EDF,5,False,4,6.57,44.723333,930.0,True,2024-12-10 21:36:28.205,2025-10-07 17:14:15.319
607,05032002,CHAMPOLEON,5,True,4,6.258833,44.720167,1275.0,True,2024-12-10 21:36:28.205,2025-10-07 17:14:15.323
608,05038001,CHATEAU-VILLE-VIEILLE,5,True,2,6.809,44.759333,1355.0,True,2024-12-10 21:28:10.118,2025-10-07 17:06:17.203
609,05038002,CHATEAU-VILLE-VIEILLE BOURG,5,False,4,6.793333,44.756667,1400.0,True,2024-12-10 21:36:28.205,2025-10-07 17:14:15.326
610,05040001,CHORGES AGGLOMERATION,5,False,4,6.276667,44.543333,871.0,True,2024-12-10 21:36:28.205,2025-10-07 17:14:15.318
611,05044001,CREVOUX CHEF-LIEU,5,False,4,6.606667,44.546667,1580.0,True,2024-12-10 21:36:28.205,2025-10-07 17:14:15.318
612,05044400,PARPAILLON-NIVOSE,5,True,3,6.636333,44.495333,2545.0,True,2024-12-10 21:28:10.120,2025-10-07 17:06:17.202
613,05046001,EMBRUN,5,True,0,6.508667,44.571167,873.0,True,2024-12-10 21:28:10.120,2025-10-07 17:06:17.205
614,05049001,ESPARRON,5,False,4,5.901667,44.453333,1150.0,True,2024-12-10 21:36:28.205,2025-10-07 17:14:15.325
615,05052001,EYGLIERS LAC DU MONT DAUPHIN,5,False,4,6.633333,44.676667,880.0,True,2024-12-10 21:36:28.205,2025-10-07 17:14:15.326
616,05052002,EYGLIERS,5,False,4,6.633333,44.676667,1050.0,True,2024-12-10 21:36:28.205,2025-10-07 17:14:15.318
617,05053001,EYGUIANS AGGLOMERATION,5,False,4,5.771667,44.345,603.0,True,2024-12-10 21:36:28.205,2025-10-07 17:14:15.318
618,05055001,LA FAURIE,5,True,2,5.750167,44.566667,825.0,True,2024-12-10 21:28:10.119,2025-10-07 17:06:17.203
619,05058001,FREISSINIERES,5,False,4,6.503333,44.748333,1320.0,True,2024-12-10 21:36:28.205,2025-10-07 17:14:15.319
620,05058002,FREISSINIERES,5,False,4,6.538333,44.755,1130.0,True,2024-12-10 21:36:28.205,2025-10-07 17:14:15.319
621,05061002,GAP COL BAYARD,5,False,4,6.076667,44.558333,1249.0,True,2024-12-10 21:36:28.205,2025-10-07 17:14:15.319
622,05061003,GAP EAUX ET FORETS,5,False,4,6.076667,44.558333,735.0,True,2024-12-10 21:36:28.205,2025-10-07 17:14:15.320
623,05061005,GAP PONTS-ET-CHAUSSEES,5,False,4,6.076667,44.558333,740.0,True,2024-12-10 21:36:28.205,2025-10-07 17:14:15.321
624,05061008,GAP,5,False,4,6.091667,44.568333,750.0,True,2024-12-10 21:36:28.205,2025-10-07 17:14:15.322
625,05061009,GAP,5,True,1,6.079833,44.577667,885.0,True,2024-12-10 21:28:10.120,2025-10-07 17:06:17.204
626,05061400,GAP BAYARD_NIVO,5,False,4,6.084333,44.6215,1240.0,True,2024-12-10 21:28:10.119,2025-10-07 17:06:17.206
627,05063001,LA GRAVE,5,True,4,6.285833,45.054167,1790.0,True,2024-12-10 21:36:28.205,2025-10-07 17:14:15.324
628,05063402,LA MEIJE-NIVOSE,5,True,3,6.265167,45.012333,3093.0,True,2024-12-10 21:28:10.119,2025-10-07 17:06:17.203
629,05063410,LA GRAVE 3200 M,5,True,4,6.253,45.006,3196.0,True,2024-12-10 21:28:10.120,2025-10-07 17:06:17.204
630,05063411,LA GRAVE 3200 M -S-,5,True,4,6.2585,45.003667,3220.0,True,2024-12-10 21:36:28.205,2025-10-07 17:14:15.319
631,05064001,CHAPELLE-EN-VALGAUDEMAR,5,True,4,6.195333,44.81,1270.0,True,2024-12-10 21:28:10.119,2025-10-07 17:06:17.203
632,05064400,Vallompierre,5,False,2,6.27,44.8,2560.0,True,2024-12-10 21:28:10.119,2025-10-07 17:06:17.203
633,05064403,LES PORTES EN VALGAUDEMAR_NIVO,5,True,4,6.195333,44.81,1270.0,True,2024-12-10 21:28:10.120,2025-10-07 17:06:17.205
634,05065001,GUILLESTRE QUARTIER PREPAREING,5,False,4,6.65,44.66,980.0,True,2024-12-10 21:36:28.205,2025-10-07 17:14:15.319
635,05065002,GUILLESTRE BOURG,5,False,4,6.65,44.66,1016.0,True,2024-12-10 21:36:28.205,2025-10-07 17:14:15.320
636,05070001,LARAGNE-MONTEGLIN,5,True,4,5.827,44.316667,575.0,True,2024-12-10 21:36:28.205,2025-10-07 17:14:15.324
637,05070003,LARAGNE MONTEGLIN,5,True,1,5.7945,44.319167,565.0,True,2024-12-10 21:28:10.120,2025-10-07 17:06:17.203
638,05077401,MOLINES EN QUEYRAS -S-,5,False,4,6.866833,44.716833,2265.0,True,2024-12-10 21:36:28.205,2025-10-07 17:14:15.326
639,05077402,COL AGNEL-NIVOSE,5,True,3,6.972167,44.686,2630.0,True,2024-12-10 21:28:10.120,2025-10-07 17:06:17.204
640,05077403,MOLINES EN QUEYRAS,5,False,4,6.856667,44.709,2068.0,True,2024-12-10 21:36:28.205,2025-10-07 17:14:15.326
641,05077404,MOLINES EN QUEYRAS_NIVO,5,True,4,6.8605,44.715333,2049.0,True,2024-12-10 21:28:10.120,2025-10-07 17:06:17.205
642,05078001,MONETIER-ALLEMONT_SPC,5,True,5,5.945167,44.380667,543.0,True,2024-12-10 21:36:28.205,2025-10-07 17:14:15.326
643,05079001,LE MONETIER LES BAINS,5,True,4,6.514167,44.9715,1459.0,True,2024-12-10 21:28:10.120,2025-10-07 17:06:17.203
644,05079002,LE MONETIER,5,False,4,6.419167,45.041167,1947.0,True,2024-12-10 21:36:28.205,2025-10-07 17:14:15.320
645,05079004,LE MONETIER-LES-BAINS-LAUTERET,5,False,4,6.508333,44.975,2058.0,True,2024-12-10 21:36:28.205,2025-10-07 17:14:15.321
646,05079400,SERRE CHE-LE MONETIER_NIVO,5,True,4,6.501,44.949833,2185.0,True,2024-12-10 21:28:10.119,2025-10-07 17:06:17.203
647,05079402,GALIBIER-NIVOSE,5,True,3,6.377167,45.056833,2559.0,True,2024-12-10 21:28:10.119,2025-10-07 17:06:17.203
648,05085001,MONTGENEVRE,5,False,4,6.721333,44.9305,1848.0,True,2024-12-10 21:36:28.205,2025-10-07 17:14:15.326
649,05085402,MONTGENEVRE -S-,5,True,4,6.719,44.953833,2375.0,True,2024-12-10 21:36:28.205,2025-10-07 17:14:15.326
650,05085403,MONTGENEVRE_NIVO,5,True,4,6.7195,44.938167,2134.0,True,2024-12-10 21:28:10.120,2025-10-07 17:06:17.203
651,05086001,MONTJAY BOURG,5,False,4,5.605,44.36,815.0,True,2024-12-10 21:36:28.205,2025-10-07 17:14:15.319
652,05088001,MONTMORIN MAISON FORESTIERE,5,False,4,5.54,44.45,760.0,True,2024-12-10 21:36:28.205,2025-10-07 17:14:15.319
653,05090001,MOTTE-DALMAS,5,False,4,6.066167,44.730833,1100.0,True,2024-12-10 21:36:28.205,2025-10-07 17:14:15.319
654,05090002,MOTTE-MOLINES,5,True,2,6.122833,44.748167,1250.0,True,2024-12-10 21:28:10.120,2025-10-07 17:06:17.206
655,05093001,NEVACHE-EDF-03,5,True,4,6.622333,45.0185,1603.0,True,2024-12-10 21:28:10.120,2025-10-07 17:06:17.206
656,05093403,NEVACHE-BUFFERE,5,False,5,6.570833,45.012833,2060.0,True,2024-12-10 21:28:10.120,2025-10-07 17:06:17.203
657,05096002,ORCIERES PRAPIC,5,False,4,6.325,44.683333,1555.0,True,2024-12-10 21:36:28.205,2025-10-07 17:14:15.320
658,05096401,ORCIERES -S-,5,True,4,6.316333,44.707833,2100.0,True,2024-12-10 21:36:28.205,2025-10-07 17:14:15.320
659,05096403,ORCIERES-PNE -S-,5,True,4,6.344667,44.724,2464.0,True,2024-12-10 21:36:28.205,2025-10-07 17:14:15.320
660,05096404,ORCIERES-NIVOSE,5,True,3,6.333667,44.719,2280.0,True,2024-12-10 21:28:10.120,2025-10-07 17:06:17.204
661,05097001,ORPIERRE AGGLOMERATION,5,False,4,5.69,44.313333,687.0,True,2024-12-10 21:36:28.205,2025-10-07 17:14:15.327
662,05098001,LES ORRES,5,True,2,6.559333,44.508833,1457.0,True,2024-12-10 21:28:10.120,2025-10-07 17:06:17.206
663,05098401,LES ORRES -S-,5,True,4,6.561167,44.473333,2220.0,True,2024-12-10 21:36:28.205,2025-10-07 17:14:15.327
664,05098402,LES ORRES_NIVO,5,True,4,6.562833,44.481667,1895.0,True,2024-12-10 21:28:10.120,2025-10-07 17:06:17.204
665,05101001,PELVOUX,5,True,2,6.486667,44.866833,1270.0,True,2024-12-10 21:28:10.120,2025-10-07 17:06:17.204
666,05101400,PELVOUX ST ANTOINE_NIVO,5,False,4,6.487167,44.870833,1270.0,True,2024-12-10 21:28:10.120,2025-10-07 17:06:17.204
667,05110001,PUY-ST-VINCENT,5,True,2,6.492667,44.828833,1388.0,True,2024-12-10 21:28:10.120,2025-10-07 17:06:17.205
668,05110400,PUY ST VINCENT_NIVO,5,True,4,6.485833,44.818,1680.0,True,2024-12-10 21:28:10.120,2025-10-07 17:06:17.206
669,05114002,REALLON ISCLE,5,False,4,6.338333,44.608333,1429.0,True,2024-12-10 21:36:28.205,2025-10-07 17:14:15.322
670,05114402,REALLON _NIVO,5,True,4,6.352333,44.579333,1716.0,True,2024-12-10 21:28:10.120,2025-10-07 17:06:17.204
671,05115001,REMOLLON,5,False,4,6.166667,44.466667,670.0,True,2024-12-10 21:36:28.205,2025-10-07 17:14:15.323
672,05118001,RIBIERS LA SYLVE,5,False,4,5.855,44.231667,523.0,True,2024-12-10 21:36:28.205,2025-10-07 17:14:15.321
673,05118002,RIBIERS-GRANGE,5,False,4,5.881167,44.198167,530.0,True,2024-12-10 21:36:28.205,2025-10-07 17:14:15.322
674,05118003,RIBIERS,5,False,2,5.855,44.2355,520.0,True,2024-12-10 21:28:10.120,2025-10-07 17:06:17.204
675,05119402,RISOUL_NIVO,5,True,4,6.644167,44.616667,2050.0,True,2024-12-10 21:28:10.120,2025-10-07 17:06:17.204
676,05119403,RISOUL -S-,5,True,4,6.641667,44.616667,2040.0,True,2024-12-10 21:36:28.205,2025-10-07 17:14:15.321
677,05120002,RISTOLAS,5,True,1,6.9845,44.765667,1670.0,True,2024-12-10 21:28:10.120,2025-10-07 17:06:17.204
678,05124001,LA ROCHETTE,5,False,4,6.155,44.593333,815.0,True,2024-12-10 21:36:28.205,2025-10-07 17:14:15.321
679,05126001,ROSANS,5,True,2,5.462167,44.3875,625.0,True,2024-12-10 21:28:10.120,2025-10-07 17:06:17.205
680,05126002,ROSANS AGGLOMERATION,5,False,4,5.47,44.391667,705.0,True,2024-12-10 21:36:28.205,2025-10-07 17:14:15.322
681,05127001,ROUSSET,5,True,4,6.2685,44.468667,675.0,True,2024-12-10 21:36:28.205,2025-10-07 17:14:15.325
682,05132001,ST-BONNET CHAMPSAUR,5,True,4,6.072833,44.684167,1005.0,True,2024-12-10 21:36:28.205,2025-10-07 17:14:15.326
683,05132002,ST BONNET,5,False,2,6.08,44.685,1015.0,True,2024-12-10 21:28:10.120,2025-10-07 17:06:17.206
684,05133003,SAINT-CHAFFREY,5,False,4,6.606667,44.925,1350.0,True,2024-12-10 21:36:28.205,2025-10-07 17:14:15.321
685,05133400,SERRE CHE-CHANTEMERLE_NIVO,5,True,4,6.571333,44.9245,1905.0,True,2024-12-10 21:28:10.120,2025-10-07 17:06:17.204
686,05136001,SAINT-CREPIN,5,False,4,6.608333,44.706667,904.0,True,2024-12-10 21:36:28.205,2025-10-07 17:14:15.321
687,05136002,ST CREPIN,5,True,1,6.6,44.7045,906.0,True,2024-12-10 21:28:10.120,2025-10-07 17:06:17.204
688,05139001,CYPIERES,5,False,4,5.933333,44.683333,1350.0,True,2024-12-10 21:36:28.205,2025-10-07 17:14:15.323
689,05139002,ST ETIENNE-EN-DEVOLUY,5,True,4,5.9405,44.6945,1300.0,True,2024-12-10 21:36:28.205,2025-10-07 17:14:15.324
690,05139004,ST-ETIENNE,5,False,4,5.938333,44.693333,1263.0,True,2024-12-10 21:36:28.205,2025-10-07 17:14:15.325
691,05139006,AGNIERES-EN-DEVOLUY,5,True,2,5.880833,44.696167,1244.0,True,2024-12-10 21:28:10.120,2025-10-07 17:06:17.205
692,05139400,St Etienne en Devoluy,5,False,4,5.937667,44.69,1281.0,True,2024-12-10 21:28:10.120,2025-10-07 17:06:17.204
693,05139405,Super_Devoluy,5,False,4,5.906667,44.6655,1915.0,True,2024-12-10 21:28:10.120,2025-10-07 17:06:17.204
694,05139406,SUPER DEVOLUY -S-,5,True,4,5.898333,44.6625,1937.0,True,2024-12-10 21:36:28.205,2025-10-07 17:14:15.322
695,05142001,ST FIRMIN,5,True,2,6.035,44.7825,935.0,True,2024-12-10 21:28:10.120,2025-10-07 17:06:17.205
696,05142002,SAINT-FIRMIN,5,False,4,6.026667,44.781667,775.0,True,2024-12-10 21:36:28.205,2025-10-07 17:14:15.322
697,05145001,SAINT-JEAN-SAINT-NICOLAS,5,False,4,6.216667,44.668333,1120.0,True,2024-12-10 21:36:28.205,2025-10-07 17:14:15.322
698,05145002,ST JEAN-ST-NICOLAS,5,True,1,6.209833,44.670833,1210.0,True,2024-12-10 21:28:10.120,2025-10-07 17:06:17.205
699,05146001,ST-JUL-EN-BEAUC,5,False,4,5.711667,44.616667,925.0,True,2024-12-10 21:36:28.205,2025-10-07 17:14:15.324
700,05146003,SAINT-JULIEN-EN-BEAUCHENE,5,False,4,5.71,44.616667,1050.0,True,2024-12-10 21:36:28.205,2025-10-07 17:14:15.322
701,05146004,ST-JULIEN,5,False,4,5.71,44.616667,922.0,True,2024-12-10 21:36:28.205,2025-10-07 17:14:15.323
702,05153400,St Michel de Chaillol -S-,5,False,4,6.153833,44.699333,1937.0,True,2024-12-10 21:36:28.205,2025-10-07 17:14:15.323
703,05154001,SAINT-PIERRE-D'ARGENCON,5,False,4,5.696667,44.518333,780.0,True,2024-12-10 21:36:28.205,2025-10-07 17:14:15.323
704,05157001,ST VERAN,5,True,4,6.870167,44.6985,1992.0,True,2024-12-10 21:36:28.205,2025-10-07 17:14:15.323
705,05157400,ST VERAN RM,5,False,4,6.867833,44.705167,2140.0,True,2024-12-10 21:28:10.120,2025-10-07 17:06:17.205
706,05158001,LE SAIX,5,True,2,5.8155,44.475833,801.0,True,2024-12-10 21:28:10.120,2025-10-07 17:06:17.205
707,05161401,SERRE CHE-VILLENEUVE -S-,5,True,4,6.517333,44.922167,2480.0,True,2024-12-10 21:36:28.205,2025-10-07 17:14:15.323
708,05162001,LA SAULCE BARRAGE EDF,5,False,4,6.006667,44.425,580.0,True,2024-12-10 21:36:28.205,2025-10-07 17:14:15.324
709,05162002,LA SAULCE BOURG,5,False,4,6.006667,44.426667,586.0,True,2024-12-10 21:36:28.205,2025-10-07 17:14:15.323
710,05166001,SERRES,5,True,4,5.710167,44.421667,652.0,True,2024-12-10 21:36:28.205,2025-10-07 17:14:15.324
711,05170001,TALLARD,5,True,1,6.033333,44.452167,593.0,True,2024-12-10 21:28:10.120,2025-10-07 17:06:17.205
712,05170003,TALLARD BOURG,5,False,4,6.053333,44.461667,607.0,True,2024-12-10 21:36:28.205,2025-10-07 17:14:15.324
713,05173001,UPAIX AGGLOMERATION,5,False,4,5.871667,44.318333,574.0,True,2024-12-10 21:36:28.205,2025-10-07 17:14:15.324
714,05173002,UPAIX ROUREBEAU,5,False,4,5.871667,44.318333,590.0,True,2024-12-10 21:36:28.205,2025-10-07 17:14:15.324
715,05174001,VAL-DES-PRES,5,False,4,6.676667,44.948333,1355.0,True,2024-12-10 21:36:28.205,2025-10-07 17:14:15.324
716,05175001,VALLOUISE AGGLOMERATION,5,False,4,6.488333,44.845,1150.0,True,2024-12-10 21:36:28.205,2025-10-07 17:14:15.324
717,05176001,L'ARCHIDIACRE-SPC,5,True,5,6.111667,44.476167,620.0,True,2024-12-10 21:28:10.120,2025-10-07 17:06:17.205
718,05177001,VARS LES CLAUX,5,False,4,6.686667,44.61,1850.0,True,2024-12-10 21:36:28.205,2025-10-07 17:14:15.324
719,05177003,VARS SAINTE-MARIE,5,False,4,6.686667,44.61,1673.0,True,2024-12-10 21:36:28.205,2025-10-07 17:14:15.324
720,05178001,VENTAVON BERTHAUT,5,False,4,5.905,44.371667,600.0,True,2024-12-10 21:36:28.205,2025-10-07 17:14:15.325
721,05179001,VEYNES,5,True,2,5.840667,44.536333,823.0,True,2024-12-10 21:28:10.120,2025-10-07 17:06:17.205
722,05179003,VEYNES PONTS-ET-CHAUSSEES,5,False,4,5.818333,44.533333,837.0,True,2024-12-10 21:36:28.205,2025-10-07 17:14:15.325
723,05180001,LES VIGNEAUX ECOLE BATIE,5,False,4,6.541667,44.823333,1120.0,True,2024-12-10 21:36:28.205,2025-10-07 17:14:15.325
724,05181001,VILLAR-D'ARENE VILLAGE,5,False,4,6.336667,45.041667,1650.0,True,2024-12-10 21:36:28.205,2025-10-07 17:14:15.325
725,05181002,VILLAR D'ARENE,5,True,1,6.361667,45.030833,1665.0,True,2024-12-10 21:28:10.120,2025-10-07 17:06:17.205
726,05181400,REFUGE ADELE PLANCHARD,5,True,5,6.340167,44.98,3175.0,True,2024-12-10 21:36:28.205,2025-10-07 17:14:15.325
727,05182001,VILLAR LOUBIERE,5,True,2,6.146,44.826833,1072.0,True,2024-12-10 21:28:10.120,2025-10-07 17:06:17.205
728,05183001,VILLAR ST PANCRACE,5,True,0,6.640333,44.880333,1310.0,True,2024-12-10 21:28:10.120,2025-10-07 17:06:17.205
729,05184002,VITROLLES,5,False,2,5.951667,44.408667,595.0,True,2024-12-10 21:28:10.120,2025-10-07 17:06:17.206
730,06003002,ANDON DOMAINE DE THORENC,6,False,4,6.785,43.773333,1250.0,True,2024-12-10 21:36:30.613,2025-10-07 17:14:17.385
731,06004001,ANTIBES VILLA THURET,6,False,4,7.118333,43.58,39.0,True,2024-12-10 21:36:30.613,2025-10-07 17:14:17.386
732,06004002,ANTIBES-GAROUPE,6,True,2,7.133,43.564667,75.0,True,2024-12-10 21:28:12.766,2025-10-07 17:06:19.732
733,06004003,ANTIBES,6,False,4,7.116667,43.616667,10.0,True,2024-12-10 21:36:30.614,2025-10-07 17:14:17.388
734,06004004,ANTIBES-GOLF,6,True,2,7.091167,43.579667,13.0,True,2024-12-10 21:28:12.766,2025-10-07 17:06:19.732
735,06004005,ANTIBES-OBS,6,False,4,7.116667,43.6,30.0,True,2024-12-10 21:36:30.617,2025-10-07 17:14:17.390
736,06004006,ANTIBES PHARE DE LA GAROUPE,6,False,4,7.118333,43.58,31.0,True,2024-12-10 21:36:30.617,2025-10-07 17:14:17.390
737,06004008,ANTIBES LE PUY - CGE,6,False,4,7.118333,43.58,66.0,True,2024-12-10 21:36:30.614,2025-10-07 17:14:17.391
738,06004009,ANTIBES_SAPC,6,True,2,7.111167,43.599167,32.0,True,2024-12-10 21:28:12.766,2025-10-07 17:06:19.732
739,06004010,ANTIBES CHATEAU DE L'ESPEE,6,False,4,7.118333,43.58,60.0,True,2024-12-10 21:36:30.617,2025-10-07 17:14:17.393
740,06004011,ANTIBES VILLE,6,False,4,7.118333,43.58,85.0,True,2024-12-10 21:36:30.617,2025-10-07 17:14:17.393
741,06004012,ANTIBES PORT,6,False,2,7.127167,43.585333,3.0,True,2024-12-10 21:28:12.766,2025-10-07 17:06:19.732
742,06004014,ANTIBES,6,False,0,7.128333,43.590167,1.0,True,2024-12-10 21:28:12.766,2025-10-07 17:06:19.732
743,06004015,ANTIBES M.G.RAYMOND,6,False,4,7.118333,43.58,35.0,True,2024-12-10 21:36:30.614,2025-10-07 17:14:17.387
744,06005001,ASCROS,6,True,1,7.013667,43.922,1173.0,True,2024-12-10 21:28:12.767,2025-10-07 17:06:19.733
745,06006001,ASPREMONT,6,False,4,7.247667,43.754667,380.0,True,2024-12-10 21:36:30.614,2025-10-07 17:14:17.389
746,06010001,BAR-SUR-LOUP,6,False,4,6.983333,43.7,330.0,True,2024-12-10 21:36:30.615,2025-10-07 17:14:17.389
747,06010002,LE BAR-SUR-LOUP AGGLOMERATION,6,False,4,6.986667,43.701667,308.0,True,2024-12-10 21:36:30.616,2025-10-07 17:14:17.390
748,06011001,BEAULIEU-SUR-MER,6,False,4,7.326667,43.705,50.0,True,2024-12-10 21:36:30.617,2025-10-07 17:14:17.391
749,06011002,BEAULIEU-SUR-MER VILLA SALLES,6,False,4,7.326667,43.705,9.0,True,2024-12-10 21:36:30.617,2025-10-07 17:14:17.391
750,06013001,BELVEDERE AGGLOMERATION,6,False,4,7.32,44.018333,950.0,True,2024-12-10 21:36:30.617,2025-10-07 17:14:17.392
751,06015001,BERRE-DES-ALPES,6,False,2,7.321667,43.838333,715.0,True,2024-12-10 21:28:12.766,2025-10-07 17:06:19.732
752,06015002,BERRE LES ALPES-COLLA DONNA,6,False,4,7.338167,43.824333,500.0,True,2024-12-10 21:36:30.617,2025-10-07 17:14:17.395
753,06016001,BEUIL-OBS,6,True,2,6.988,44.089833,1464.0,True,2024-12-10 21:28:12.766,2025-10-07 17:06:19.733
754,06016002,BEUIL STATION MILITAIRE,6,False,4,6.99,44.095,1480.0,True,2024-12-10 21:36:30.615,2025-10-07 17:14:17.386
755,06016003,BEUIL AGGLOMERATION,6,False,4,6.99,44.095,1640.0,True,2024-12-10 21:36:30.615,2025-10-07 17:14:17.390
756,06016004,BEUIL,6,False,2,6.989333,44.089,1368.0,True,2024-12-10 21:28:12.767,2025-10-07 17:06:19.732
757,06020001,LA BOLLENE-VESUBIE BOURG,6,False,4,7.333333,43.991667,650.0,True,2024-12-10 21:36:30.617,2025-10-07 17:14:17.393
758,06022001,BOUYON-OBS,6,False,4,7.107167,43.815333,730.0,True,2024-12-10 21:36:30.616,2025-10-07 17:14:17.394
759,06022002,BOUYON,6,False,2,7.118167,43.823,723.0,True,2024-12-10 21:28:12.767,2025-10-07 17:06:19.733
760,06023001,BREIL ROYA-OBS,6,False,4,7.5,43.933333,320.0,True,2024-12-10 21:36:30.617,2025-10-07 17:14:17.396
761,06023004,BREIL SUR ROYA,6,True,2,7.513667,43.940167,305.0,True,2024-12-10 21:28:12.767,2025-10-07 17:06:19.732
762,06029001,CANNES,6,True,0,6.9505,43.5565,2.0,True,2024-12-10 21:28:12.767,2025-10-07 17:06:19.732
763,06029002,CANNES PEPINIERE MUNICIPALE,6,False,4,7.016667,43.558333,59.0,True,2024-12-10 21:36:30.617,2025-10-07 17:14:17.396
764,06029003,CANNES,6,False,4,7.066667,43.516667,10.0,True,2024-12-10 21:36:30.617,2025-10-07 17:14:17.396
765,06029005,CANNES ROUTE DE GRASSE,6,False,4,7.016667,43.558333,75.0,True,2024-12-10 21:36:30.617,2025-10-07 17:14:17.397
766,06029006,CANNES AGGLOMERATION,6,False,4,7.016667,43.558333,5.0,True,2024-12-10 21:36:30.617,2025-10-07 17:14:17.386
767,06029007,CANNES PORT,6,False,2,7.033333,43.55,3.0,True,2024-12-10 21:28:12.767,2025-10-07 17:06:19.733
768,06029008,CANNES BOURG,6,False,4,7.016667,43.558333,27.0,True,2024-12-10 21:36:30.617,2025-10-07 17:14:17.394
769,06029009,CANNES M.DUPAIGNE,6,False,4,7.016667,43.558333,18.0,True,2024-12-10 21:36:30.618,2025-10-07 17:14:17.396
770,06029010,CANNES REYNAUD,6,False,4,7.016667,43.558333,15.0,True,2024-12-10 21:36:30.618,2025-10-07 17:14:17.396
771,06033001,CARROS-OBS,6,False,4,7.2,43.766667,63.0,True,2024-12-10 21:36:30.618,2025-10-07 17:14:17.396
772,06033002,CARROS_SAPC,6,True,2,7.209167,43.786667,78.0,True,2024-12-10 21:28:12.767,2025-10-07 17:06:19.732
773,06036001,CASTILLON BOURG,6,False,4,7.476667,43.835,400.0,True,2024-12-10 21:36:30.618,2025-10-07 17:14:17.396
774,06037001,CAUSSOLS LA CELLE,6,False,4,6.898333,43.743333,1104.0,True,2024-12-10 21:36:30.618,2025-10-07 17:14:17.397
775,06037002,CAUSSOLS,6,True,2,6.923167,43.752333,1268.0,True,2024-12-10 21:28:12.767,2025-10-07 17:06:19.733
776,06038001,CHATEAUNEUF GRASSE,6,True,2,6.996167,43.678333,379.0,True,2024-12-10 21:28:12.767,2025-10-07 17:06:19.735
777,06040001,CHATEAUNEUF-D'ENTRAUNES BOURG,6,False,4,6.831667,44.128333,1500.0,True,2024-12-10 21:36:30.617,2025-10-07 17:14:17.386
778,06042002,CLANS BOURG - EDF,6,False,4,7.148333,43.996667,630.0,True,2024-12-10 21:36:30.617,2025-10-07 17:14:17.388
779,06044001,COLLE LOUP-OBS,6,False,4,7.072667,43.689333,44.0,True,2024-12-10 21:36:30.617,2025-10-07 17:14:17.389
780,06044002,COLLE SUR LOUP,6,False,2,7.1,43.691667,165.0,True,2024-12-10 21:28:12.766,2025-10-07 17:06:19.736
781,06046001,COLOMARS,6,False,4,7.216667,43.766667,334.0,True,2024-12-10 21:36:30.617,2025-10-07 17:14:17.391
782,06048001,CONTES-OBS,6,False,4,7.317167,43.8045,190.0,True,2024-12-10 21:36:30.617,2025-10-07 17:14:17.392
783,06048002,CONTES SCLOS DE CONTES,6,False,4,7.316667,43.815,340.0,True,2024-12-10 21:36:30.617,2025-10-07 17:14:17.393
784,06048003,CONTES,6,False,2,7.316667,43.8,200.0,True,2024-12-10 21:28:12.767,2025-10-07 17:06:19.736
785,06050002,COURSEGOULES_SAPC,6,True,2,7.0485,43.792,985.0,True,2024-12-10 21:28:12.767,2025-10-07 17:06:19.736
786,06051001,LA CROIX SUR ROUDOULE_SAPC,6,False,2,6.873333,43.987667,860.0,True,2024-12-10 21:28:12.767,2025-10-07 17:06:19.733
787,06052001,CUEBRIS,6,False,4,7.015667,43.888,562.0,True,2024-12-10 21:36:30.618,2025-10-07 17:14:17.387
788,06056002,ENTRAUNES,6,False,4,6.748333,44.19,1659.0,True,2024-12-10 21:36:30.618,2025-10-07 17:14:17.388
789,06056003,ENTRAUNES-ESTENC,6,False,4,6.753,44.255833,1850.0,True,2024-12-10 21:36:30.618,2025-10-07 17:14:17.392
790,06056004,ENTRAUNES ESTEINC,6,False,4,6.748333,44.19,1788.0,True,2024-12-10 21:36:30.618,2025-10-07 17:14:17.393
791,06056400,ESTENC_NIVO,6,True,4,6.753,44.239167,1850.0,True,2024-12-10 21:28:12.767,2025-10-07 17:06:19.736
792,06057001,L ESCARENE,6,False,4,7.355,43.838,380.0,True,2024-12-10 21:36:30.618,2025-10-07 17:14:17.395
793,06059001,EZE-OBS,6,False,4,7.355,43.726,388.0,True,2024-12-10 21:36:30.618,2025-10-07 17:14:17.395
794,06059003,EZE,6,True,2,7.365833,43.738833,704.0,True,2024-12-10 21:28:12.767,2025-10-07 17:06:19.736
795,06062001,FONTAN USINE ELECTRIQUE,6,False,4,7.553333,44.005,425.0,True,2024-12-10 21:36:30.617,2025-10-07 17:14:17.396
796,06065001,GAUDE,6,False,4,7.180167,43.732167,30.0,True,2024-12-10 21:36:30.617,2025-10-07 17:14:17.396
797,06069001,GRASSE-OBS,6,False,4,6.933333,43.65,211.0,True,2024-12-10 21:36:30.617,2025-10-07 17:14:17.396
798,06069002,GRASSE-OBS,6,False,4,6.9,43.65,318.0,True,2024-12-10 21:36:30.617,2025-10-07 17:14:17.396
799,06069003,GRASM,6,False,4,6.95,43.666667,204.0,True,2024-12-10 21:36:30.617,2025-10-07 17:14:17.397
800,06069004,GRASSE PLASCASSIER,6,False,4,6.921667,43.658333,255.0,True,2024-12-10 21:36:30.617,2025-10-07 17:14:17.397
801,06069006,GRASSE VILLA MONT-VENTOUX,6,False,4,6.921667,43.658333,350.0,True,2024-12-10 21:36:30.617,2025-10-07 17:14:17.387
802,06069008,GRASSE,6,False,2,6.9395,43.653667,183.0,True,2024-12-10 21:28:12.767,2025-10-07 17:06:19.737
803,06069009,GRASSE JARDIN ESSAIS,6,False,4,6.923333,43.658333,160.0,True,2024-12-10 21:36:30.618,2025-10-07 17:14:17.390
804,06070001,GREOLIERES,6,False,4,6.966667,43.833333,1380.0,True,2024-12-10 21:36:30.618,2025-10-07 17:14:17.391
805,06071001,GUILLAUMES-OBS,6,True,2,6.852333,44.090667,788.0,True,2024-12-10 21:28:12.768,2025-10-07 17:06:19.733
806,06071003,GUILLAUMES,6,False,2,6.85,44.1,780.0,True,2024-12-10 21:28:12.766,2025-10-07 17:06:19.734
807,06073001,ISOLA,6,False,4,7.033333,44.2,870.0,True,2024-12-10 21:36:30.618,2025-10-07 17:14:17.395
808,06073002,ISOLA LE VERGER,6,False,4,7.05,44.186667,875.0,True,2024-12-10 21:36:30.618,2025-10-07 17:14:17.395
809,06073004,ISOLA,6,False,4,7.166667,44.2,2035.0,True,2024-12-10 21:36:30.617,2025-10-07 17:14:17.396
810,06073005,ISOLA 2000,6,True,2,7.149,44.1895,1912.0,True,2024-12-10 21:28:12.766,2025-10-07 17:06:19.735
811,06073401,ISOLA -S-,6,True,4,7.134167,44.173667,2288.0,True,2024-12-10 21:36:30.617,2025-10-07 17:14:17.396
812,06073405,ISOLA_NIVO,6,True,4,7.149,44.1895,1912.0,True,2024-12-10 21:28:12.767,2025-10-07 17:06:19.736
813,06074001,LANTOSQUE-OBS,6,False,4,7.316667,43.966667,550.0,True,2024-12-10 21:36:30.617,2025-10-07 17:14:17.396
814,06074002,LANTOSQUE-ST-ANDRE,6,False,4,7.313333,43.975,485.0,True,2024-12-10 21:36:30.617,2025-10-07 17:14:17.388
815,06074005,LANTOSQUE_SAPC,6,True,2,7.307,43.972,550.0,True,2024-12-10 21:28:12.767,2025-10-07 17:06:19.736
816,06075001,LEVENS-OBS,6,False,4,7.216667,43.866667,565.0,True,2024-12-10 21:36:30.617,2025-10-07 17:14:17.390
817,06075002,LEVENS RUE MASSENA,6,False,4,7.225,43.86,583.0,True,2024-12-10 21:36:30.617,2025-10-07 17:14:17.391
818,06075003,LEVENS LES MOULINS,6,False,4,7.225,43.86,266.0,True,2024-12-10 21:36:30.617,2025-10-07 17:14:17.392
819,06075006,LEVENS_RESERVOIRS,6,False,2,7.236667,43.861667,668.0,True,2024-12-10 21:28:12.767,2025-10-07 17:06:19.733
820,06075007,LEVENS,6,True,2,7.21,43.846333,691.0,True,2024-12-10 21:28:12.767,2025-10-07 17:06:19.736
821,06077001,LUCERAM-OBS,6,False,4,7.366667,43.933333,1420.0,True,2024-12-10 21:36:30.618,2025-10-07 17:14:17.396
822,06077002,LUCERAM PLAN CAVAL,6,False,4,7.36,43.883333,1920.0,True,2024-12-10 21:36:30.617,2025-10-07 17:14:17.396
823,06077003,LUCERAM LE TOURNET,6,False,4,7.36,43.883333,1100.0,True,2024-12-10 21:36:30.617,2025-10-07 17:14:17.396
824,06077005,LUCERAM,6,False,4,7.36,43.883333,1500.0,True,2024-12-10 21:36:30.617,2025-10-07 17:14:17.396
825,06077006,PEIRA CAVA,6,True,1,7.363333,43.929167,1443.0,True,2024-12-10 21:28:12.767,2025-10-07 17:06:19.736
826,06079001,MANDELIEU-LA-NAPOULE BOURG,6,False,4,6.936667,43.555,3.0,True,2024-12-10 21:36:30.617,2025-10-07 17:14:17.387
827,06079002,MANDELIEU LA NAPOULE_SAPC,6,True,2,6.898667,43.523667,104.0,True,2024-12-10 21:28:12.766,2025-10-07 17:06:19.736
828,06081001,LE MAS,6,True,1,6.809333,43.813667,1525.0,True,2024-12-10 21:28:12.767,2025-10-07 17:06:19.733
829,06083001,MENTON-OBS,6,False,4,7.528833,43.784833,12.0,True,2024-12-10 21:36:30.617,2025-10-07 17:14:17.391
830,06083002,MENTP,6,False,4,7.5,43.783333,10.0,True,2024-12-10 21:36:30.617,2025-10-07 17:14:17.393
831,06083003,MENTON CAREI,6,False,4,7.495,43.775,24.0,True,2024-12-10 21:36:30.617,2025-10-07 17:14:17.394
832,06083004,MENTON AGGLOMERATION,6,False,4,7.495,43.775,15.0,True,2024-12-10 21:36:30.617,2025-10-07 17:14:17.395
833,06083005,MENTON,6,True,2,7.488667,43.785833,216.0,True,2024-12-10 21:28:12.767,2025-10-07 17:06:19.734
834,06083006,MENTON-PORT,6,False,2,7.519333,43.784,19.0,True,2024-12-10 21:28:12.768,2025-10-07 17:06:19.735
835,06083007,MENTON BOURG,6,False,4,7.495,43.776667,20.0,True,2024-12-10 21:36:30.617,2025-10-07 17:14:17.396
836,06084002,MOUANS SARTOUX,6,False,2,6.951167,43.611833,165.0,True,2024-12-10 21:28:12.767,2025-10-07 17:06:19.736
837,06086001,MOULINET,6,True,2,7.414667,43.942,817.0,True,2024-12-10 21:28:12.767,2025-10-07 17:06:19.733
838,06086002,MOULINET,6,False,4,7.411667,43.941667,1607.0,True,2024-12-10 21:36:30.618,2025-10-07 17:14:17.387
839,06086003,MOULINET BOURG,6,False,4,7.411667,43.943333,820.0,True,2024-12-10 21:36:30.618,2025-10-07 17:14:17.388
840,06088001,NICE,6,True,0,7.209,43.648833,2.0,True,2024-12-10 21:28:12.767,2025-10-07 17:06:19.733
841,06088002,NICE,6,False,4,7.286833,43.694667,6.0,True,2024-12-10 21:36:30.617,2025-10-07 17:14:17.389
842,06088003,NICE-COL,6,False,4,7.301333,43.710333,199.0,True,2024-12-10 21:36:30.617,2025-10-07 17:14:17.390
843,06088004,GIOFFREDO,6,False,4,7.261667,43.705,3.0,True,2024-12-10 21:36:30.617,2025-10-07 17:14:17.391
844,06088005,NICE-FERIC,6,False,4,7.2345,43.7175,197.0,True,2024-12-10 21:36:30.617,2025-10-07 17:14:17.392
845,06088006,NICE,6,False,4,7.187167,43.717667,37.0,True,2024-12-10 21:36:30.617,2025-10-07 17:14:17.397
846,06088007,NICE-RIMIEZ,6,True,2,7.279167,43.738667,238.0,True,2024-12-10 21:28:12.767,2025-10-07 17:06:19.733
847,06088008,NICE,6,False,4,7.276,43.7035,79.0,True,2024-12-10 21:36:30.617,2025-10-07 17:14:17.400
848,06088009,NICE-ST ROMAN,6,False,2,7.216667,43.751667,323.0,True,2024-12-10 21:28:12.767,2025-10-07 17:06:19.733
849,06088010,NICE,6,False,4,7.268833,43.714333,18.0,True,2024-12-10 21:36:30.617,2025-10-07 17:14:17.387
850,06088011,NICE MONT-GROS,6,False,4,7.2985,43.726333,347.0,True,2024-12-10 21:28:12.767,2025-10-07 17:06:19.733
851,06088012,NICE-TEYSSEIRE,6,False,4,7.261667,43.705,9.0,True,2024-12-10 21:36:30.617,2025-10-07 17:14:17.387
852,06088013,NICE,6,False,4,7.270667,43.6965,16.0,True,2024-12-10 21:36:30.617,2025-10-07 17:14:17.388
853,06088014,NICE M.VALLOT,6,False,4,7.261667,43.706667,27.0,True,2024-12-10 21:36:30.617,2025-10-07 17:14:17.388
854,06088015,NICE STAT. AGRON.,6,False,4,7.261667,43.706667,10.0,True,2024-12-10 21:36:30.617,2025-10-07 17:14:17.389
855,06088016,NICE BOURG,6,False,4,7.261667,43.706667,5.0,True,2024-12-10 21:36:30.618,2025-10-07 17:14:17.389
856,06088017,NICE HOPITAL MILITAIRE,6,False,4,7.261667,43.706667,10.0,True,2024-12-10 21:36:30.618,2025-10-07 17:14:17.391
857,06088020,NICE MASSENA,6,False,4,7.2695,43.695333,2.0,True,2024-12-10 21:28:12.767,2025-10-07 17:06:19.733
858,06088400,Enq. aval Nice -S-,6,False,4,7.201167,43.653667,4.0,True,2024-12-10 21:36:30.618,2025-10-07 17:14:17.395
859,06088401,Occasionnel Nice -S-,6,False,4,7.201167,43.653667,4.0,True,2024-12-10 21:36:30.618,2025-10-07 17:14:17.396
860,06090001,PEGOMAS-TANNERON,6,False,2,6.897,43.562667,483.0,True,2024-12-10 21:28:12.767,2025-10-07 17:06:19.733
861,06090002,PEGOMAS,6,True,2,6.936667,43.602667,109.0,True,2024-12-10 21:28:12.767,2025-10-07 17:06:19.733
862,06091001,PEILLE-OBS,6,False,4,7.4,43.833333,630.0,True,2024-12-10 21:36:30.617,2025-10-07 17:14:17.391
863,06091002,PEILLE MADONE,6,False,4,7.414667,43.796,1000.0,True,2024-12-10 21:36:30.617,2025-10-07 17:14:17.393
864,06091003,PEILLE,6,True,1,7.428333,43.775167,1106.0,True,2024-12-10 21:28:12.767,2025-10-07 17:06:19.733
865,06091004,PEILLE,6,False,3,7.4,43.8,672.0,True,2024-12-10 21:36:30.617,2025-10-07 17:14:17.395
866,06091005,PEILLE-FONTBONNE,6,False,4,7.425,43.764167,793.0,True,2024-12-10 21:36:30.617,2025-10-07 17:14:17.396
867,06091006,PEILLE COL DE LA MADONE,6,False,4,7.414667,43.796,848.0,True,2024-12-10 21:36:30.617,2025-10-07 17:14:17.396
868,06092001,PEILLON,6,False,4,7.356167,43.766333,142.0,True,2024-12-10 21:36:30.618,2025-10-07 17:14:17.396
869,06093001,LA PENNE,6,False,4,6.933333,43.906333,683.0,True,2024-12-10 21:36:30.618,2025-10-07 17:14:17.388
870,06094001,PEONE-VALBERG,6,False,4,6.933333,44.1,1659.0,True,2024-12-10 21:36:30.618,2025-10-07 17:14:17.388
871,06094002,PEONE,6,True,1,6.930833,44.099667,1784.0,True,2024-12-10 21:28:12.767,2025-10-07 17:06:19.734
872,06094400,VALBERG_NIVO,6,True,4,6.941333,44.087,1630.0,True,2024-12-10 21:28:12.767,2025-10-07 17:06:19.735
873,06094401,VALBERG -S-,6,True,4,6.93,44.1,1800.0,True,2024-12-10 21:36:30.617,2025-10-07 17:14:17.388
874,06099001,PUGET-THENI-OBS,6,False,4,6.9,43.95,420.0,True,2024-12-10 21:36:30.617,2025-10-07 17:14:17.389
875,06099002,PUGET-THENIERS,6,False,4,6.893333,43.958333,490.0,True,2024-12-10 21:36:30.617,2025-10-07 17:14:17.389
